<?xml version='1.0' encoding='UTF-8'?>
<kml xmlns='http://www.opengis.net/kml/2.2'>
	<Document>
		<name>Wifi Uruguay</name>
		<description><![CDATA[Ubicación e información sobre puntos de acceso WiFi (hotspots) en Uruguay.<br>PRODUCTORES EN URUGUAY<br>para promo en este mapa contactarse con uruguaymapeos@gmail.com<br>.<br>]]></description>
		<Folder>
			<name>Capa sin nombre</name>
			<Placemark>
				<name>Bus</name>
				<description><![CDATA[BUS Diferenciales y Sub Urbanos (http://www.montevideo.gub.uy/noticias/con-la-compu-en-el-omnibus)<br><br> Uruguay Mapeos (http://sites.google.com/site/uruguaymapeos/Archivos-Google-Earth/home)<br><br><br>BUS Departamentales<br>Cot, Agencia Central]]></description>
				<styleUrl>#icon-25</styleUrl>
				<ExtendedData>
				</ExtendedData>
				<Point>
					<coordinates>-56.167045,-34.893851,0.0</coordinates>
				</Point>
			</Placemark>
			<Placemark>
				<name>Zona Wifi Ceibal - Montevideo y área metropolitana</name>
				<description><![CDATA[Buscar zona Montevideo y área metropolitana (http://200.40.200.99/espacio_tecnico/zonas_wifi/lista_puntos.php)]]></description>
				<styleUrl>#icon-181</styleUrl>
				<ExtendedData>
				</ExtendedData>
				<Point>
					<coordinates>-56.04126,-32.71335500000001,0.0</coordinates>
				</Point>
			</Placemark>
			<Placemark>
				<name>Zona Wifi Ceibal - Interior </name>
				<description><![CDATA[Buscar por departamentos (http://200.40.200.99/espacio_tecnico/zonas_wifi_interior/lista_deptos_puntos.php)]]></description>
				<styleUrl>#icon-181</styleUrl>
				<ExtendedData>
				</ExtendedData>
				<Point>
					<coordinates>-56.29394500000001,-32.754942,0.0</coordinates>
				</Point>
			</Placemark>
			<Placemark>
				<name>McDonald's Portones Shopping</name>
				<description><![CDATA[Avenida Italia 5781,<br>11500, Montevideo, Uruguay<br>+598  2601 8018<br>http://www.mcdonalds.com.uy/<br>Usuario: wifi<br>Contraseña: antel<br><br>Uruguay Mapeos (http://sites.google.com/site/uruguaymapeos/Archivos-Google-Earth/home)]]></description>
				<styleUrl>#icon-503-DB4436</styleUrl>
				<ExtendedData>
				</ExtendedData>
				<Point>
					<coordinates>-56.079552,-34.881119,0.0</coordinates>
				</Point>
			</Placemark>
			<Placemark>
				<name>Punta Carretas Shopping</name>
				<description><![CDATA[José Ellauri 350,<br>11300, Montevideo, Uruguay<br>http://www.puntacarretasshopping.com.uy/<br>+598  2711 6940 int.126<br>Plaza de comidas.<br><br>Uruguay Mapeos (http://sites.google.com/site/uruguaymapeos/Archivos-Google-Earth/home)]]></description>
				<styleUrl>#icon-503-DB4436</styleUrl>
				<ExtendedData>
				</ExtendedData>
				<Point>
					<coordinates>-56.158569,-34.924099,0.0</coordinates>
				</Point>
			</Placemark>
			<Placemark>
				<name>Montevideo Shopping</name>
				<description><![CDATA[Avenida Luis Alberto de Herrera 1290,<br>11300, Montevideo, Uruguay<br>+598  2622 1005<br>http://www.tushopping.com.uy/<br>Plaza de comidas.<br><br>Uruguay Mapeos (http://sites.google.com/site/uruguaymapeos/Archivos-Google-Earth/home)]]></description>
				<styleUrl>#icon-503-DB4436</styleUrl>
				<ExtendedData>
				</ExtendedData>
				<Point>
					<coordinates>-56.136810000000004,-34.903267,0.0</coordinates>
				</Point>
			</Placemark>
			<Placemark>
				<name>McDonald's Plaza Matriz</name>
				<description><![CDATA[Peatonal Sarandí 558,<br>11000, Montevideo, Uruguay<br>http://www.mcdonalds.com.uy/<br>+598  2916 4227<br>Usuario: wifi<br>Contraseña: antel<br><br>Uruguay Mapeos (http://sites.google.com/site/uruguaymapeos/Archivos-Google-Earth/home)]]></description>
				<styleUrl>#icon-503-DB4436</styleUrl>
				<ExtendedData>
				</ExtendedData>
				<Point>
					<coordinates>-56.203438,-34.907127,0.0</coordinates>
				</Point>
			</Placemark>
			<Placemark>
				<name>Don Trigo Meson</name>
				<description><![CDATA[Peatonal Sarandí 584<br>11000, Montevideo, Uruguay<br>http://www.dontrigo.com.uy/<br>+598 (2) 9170952<br><br>Uruguay Mapeos (http://sites.google.com/site/uruguaymapeos/Archivos-Google-Earth/home)]]></description>
				<styleUrl>#icon-503-DB4436</styleUrl>
				<ExtendedData>
				</ExtendedData>
				<Point>
					<coordinates>-56.203072,-34.907051,0.0</coordinates>
				</Point>
			</Placemark>
			<Placemark>
				<name>Rincón de Zabala</name>
				<description><![CDATA[Rincón 387,<br>11000, Montevideo, Uruguay<br>http://www.rdz.com.uy/<br>+598 (2) 9164387<br>La contraseña cambia cada día y se debe pedir en la caja.<br><br>Uruguay Mapeos (http://sites.google.com/site/uruguaymapeos/Archivos-Google-Earth/home)]]></description>
				<styleUrl>#icon-503-DB4436</styleUrl>
				<ExtendedData>
				</ExtendedData>
				<Point>
					<coordinates>-56.207611,-34.907261,0.0</coordinates>
				</Point>
			</Placemark>
			<Placemark>
				<name>Zonamerica</name>
				<description><![CDATA[Ruta 8 km 17,500,<br>91600, Montevideo, Uruguay<br>+598  2518 2000<br>http://www.zonamerica.com/<br><br>Uruguay Mapeos (http://sites.google.com/site/uruguaymapeos/Archivos-Google-Earth/home)]]></description>
				<styleUrl>#icon-503-DB4436</styleUrl>
				<ExtendedData>
				</ExtendedData>
				<Point>
					<coordinates>-55.634766,-34.786739,0.0</coordinates>
				</Point>
			</Placemark>
			<Placemark>
				<name>Don Trigo Viejo</name>
				<description><![CDATA[Gabriel Pereira 3185,<br>11300, Montevideo, Uruguay<br>+598 (2) 7084719<br>http://www.dontrigo.com.uy/<br><br> <br>Uruguay Mapeos (http://sites.google.com/site/uruguaymapeos/Archivos-Google-Earth/home)]]></description>
				<styleUrl>#icon-503-DB4436</styleUrl>
				<ExtendedData>
				</ExtendedData>
				<Point>
					<coordinates>-56.147175,-34.909813,0.0</coordinates>
				</Point>
			</Placemark>
			<Placemark>
				<name>Shopping Tres Cruces</name>
				<description><![CDATA[Bulevar Artigas 1825,<br>11800, Montevideo, Uruguay<br>http://www.trescruces.com.uy/<br>Plaza de comidas.<br><br>Uruguay Mapeos (http://sites.google.com/site/uruguaymapeos/Archivos-Google-Earth/home)]]></description>
				<styleUrl>#icon-503-DB4436</styleUrl>
				<ExtendedData>
				</ExtendedData>
				<Point>
					<coordinates>-56.16657300000001,-34.906204,0.0</coordinates>
				</Point>
			</Placemark>
			<Placemark>
				<name>Punta Shopping</name>
				<description><![CDATA[Avenida Roosevelt y Parada 7 Playa Mansa s/n<br>20100, Punta del Este, Maldonado, Uruguay<br>http://www.puntashopping.com.uy/<br>+598  4248 9666<br>Plaza de comidas Cines<br><br>Uruguay Mapeos (http://sites.google.com/site/uruguaymapeos/Archivos-Google-Earth/home)]]></description>
				<styleUrl>#icon-503-DB4436</styleUrl>
				<ExtendedData>
				</ExtendedData>
				<Point>
					<coordinates>-54.93428,-34.940865,0.0</coordinates>
				</Point>
			</Placemark>
			<Placemark>
				<name>Parador El Chiringo</name>
				<description><![CDATA[Las Grutas,<br>20003, Punta Ballena, Maldonado, Uruguay<br>+598  4257 8775<br><br> <br>Uruguay Mapeos (http://sites.google.com/site/uruguaymapeos/Archivos-Google-Earth/home)]]></description>
				<styleUrl>#icon-503-DB4436</styleUrl>
				<ExtendedData>
				</ExtendedData>
				<Point>
					<coordinates>-55.041439,-34.910244,0.0</coordinates>
				</Point>
			</Placemark>
			<Placemark>
				<name>Cactus y Pescados</name>
				<description><![CDATA[Playa Bikini,<br>20002, Manantiales, Maldonado, Uruguay<br>+598  4277 4782<br><br> <br>Uruguay Mapeos (http://sites.google.com/site/uruguaymapeos/Archivos-Google-Earth/home)]]></description>
				<styleUrl>#icon-503-DB4436</styleUrl>
				<ExtendedData>
				</ExtendedData>
				<Point>
					<coordinates>-54.828911,-34.905403,0.0</coordinates>
				</Point>
			</Placemark>
			<Placemark>
				<name>Devoto Punta del Este</name>
				<description><![CDATA[Avenida Roosevelt y Parada 11 Playa Mansa s/n,<br>20100, Punta del Este, Maldonado, Uruguay<br>+598  4248 8692<br>http://www.devoto.com.uy/<br>Plaza de comidas y Snack Bar.<br><br>Uruguay Mapeos (http://sites.google.com/site/uruguaymapeos/Archivos-Google-Earth/home)]]></description>
				<styleUrl>#icon-503-DB4436</styleUrl>
				<ExtendedData>
				</ExtendedData>
				<Point>
					<coordinates>-54.939495,-34.933159,0.0</coordinates>
				</Point>
			</Placemark>
			<Placemark>
				<name>Costa Azul Montevideo Shopping</name>
				<description><![CDATA[Avenida Luis Alberto de Herrera 1290,<br>11300, Montevideo, Uruguay<br>+598  2622 1727<br><br>Uruguay Mapeos (http://sites.google.com/site/uruguaymapeos/Archivos-Google-Earth/home)]]></description>
				<styleUrl>#icon-503-DB4436</styleUrl>
				<ExtendedData>
				</ExtendedData>
				<Point>
					<coordinates>-56.136532,-34.903847,0.0</coordinates>
				</Point>
			</Placemark>
			<Placemark>
				<name>Don Pepperone Montevideo Shopping</name>
				<description><![CDATA[Avenida Luis Alberto de Herrera 1282,<br>11300, Montevideo, Uruguay<br>+598  2622 0666<br><br>Uruguay Mapeos (http://sites.google.com/site/uruguaymapeos/Archivos-Google-Earth/home)]]></description>
				<styleUrl>#icon-503-DB4436</styleUrl>
				<ExtendedData>
				</ExtendedData>
				<Point>
					<coordinates>-56.137135,-34.903877,0.0</coordinates>
				</Point>
			</Placemark>
			<Placemark>
				<name>Café del Puerto</name>
				<description><![CDATA[Terminal de Buquebus, Pérez Castellano s/n<br>11000, Montevideo, Uruguay<br><br>Uruguay Mapeos (http://sites.google.com/site/uruguaymapeos/Archivos-Google-Earth/home)]]></description>
				<styleUrl>#icon-503-DB4436</styleUrl>
				<ExtendedData>
				</ExtendedData>
				<Point>
					<coordinates>-56.21365,-34.903011,0.0</coordinates>
				</Point>
			</Placemark>
			<Placemark>
				<name>Devoto Fresh Market Portones</name>
				<description><![CDATA[Avenida Italia 5775,<br>11500, Montevideo, Uruguay<br>+598   2601 8050<br>http://www.devoto.com.uy/<br>Cafetería.<br><br>Uruguay Mapeos (http://sites.google.com/site/uruguaymapeos/Archivos-Google-Earth/home)]]></description>
				<styleUrl>#icon-503-DB4436</styleUrl>
				<ExtendedData>
				</ExtendedData>
				<Point>
					<coordinates>-56.080647,-34.880501,0.0</coordinates>
				</Point>
			</Placemark>
			<Placemark>
				<name>Centro Comercial Parque Roosevelt (Géant)</name>
				<description><![CDATA[Avenida Ingeniero Luis Giannattasio y Avenida a la Playa s/n<br>15000, Barra de Carrasco, Canelones, Uruguay<br>+598  2601 5353<br>http://www.geant.com.uy/<br>Plaza de comidas.<br><br>Uruguay Mapeos (http://sites.google.com/site/uruguaymapeos/Archivos-Google-Earth/home)]]></description>
				<styleUrl>#icon-503-DB4436</styleUrl>
				<ExtendedData>
				</ExtendedData>
				<Point>
					<coordinates>-56.024059,-34.865582,0.0</coordinates>
				</Point>
			</Placemark>
			<Placemark>
				<name>Olb Boys &amp; Old Girls Club (British School)</name>
				<description><![CDATA[Máximo Tajes 6389,<br>11500, Montevideo, Uruguay<br>+598  2606 1914<br>http://www.obcyogc.com/<br><br>Uruguay Mapeos (http://sites.google.com/site/uruguaymapeos/Archivos-Google-Earth/home)]]></description>
				<styleUrl>#icon-503-DB4436</styleUrl>
				<ExtendedData>
				</ExtendedData>
				<Point>
					<coordinates>-56.069798,-34.876672,0.0</coordinates>
				</Point>
			</Placemark>
			<Placemark>
				<name>Universidad de la Empresa (UDE) Pocitos</name>
				<description><![CDATA[Antonio Costa 3571<br>11300, Montevideo, Uruguay<br>+598  2628 6220<br>http://www.ude.edu.uy/<br><br>Uruguay Mapeos (http://sites.google.com/site/uruguaymapeos/Archivos-Google-Earth/home)]]></description>
				<styleUrl>#icon-503-DB4436</styleUrl>
				<ExtendedData>
				</ExtendedData>
				<Point>
					<coordinates>-56.133755,-34.907051,0.0</coordinates>
				</Point>
			</Placemark>
			<Placemark>
				<name>Aeropuerto Internacional de Carrasco</name>
				<description><![CDATA[Aeropuerto Internacional de Carrasco "Gral C.L. Berisso"<br>14000, Canelones, Uruguay<br>+598  2604 0272<br>http://www.aic.com.uy/<br>Plaza de comidas.<br> <br>Uruguay Mapeos (http://sites.google.com/site/uruguaymapeos/Archivos-Google-Earth/home)]]></description>
				<styleUrl>#icon-503-DB4436</styleUrl>
				<ExtendedData>
				</ExtendedData>
				<Point>
					<coordinates>-56.01645500000001,-34.836949,0.0</coordinates>
				</Point>
			</Placemark>
			<Placemark>
				<name>Universidad ORT Pocitos</name>
				<description><![CDATA[Bvar España 2633,<br>11300, Montevideo, Uruguay<br>+598  2707 1806<br>http://www.ort.edu.uy/<br>Usuario: antel<br>Contraseña: wifi<br><br>Uruguay Mapeos (http://sites.google.com/site/uruguaymapeos/Archivos-Google-Earth/home)]]></description>
				<styleUrl>#icon-503-DB4436</styleUrl>
				<ExtendedData>
				</ExtendedData>
				<Point>
					<coordinates>-56.156982,-34.912804,0.0</coordinates>
				</Point>
			</Placemark>
			<Placemark>
				<name>Universidad ORT Centro</name>
				<description><![CDATA[Cuareim 1451<br>11100, Montevideo,<br>Montevideo,<br>Uruguay<br>+598 (2) 9021505<br>http://www.ort.edu.uy/<br><br>Usuario: antel<br>Contraseña: wifi]]></description>
				<styleUrl>#icon-503-DB4436</styleUrl>
				<ExtendedData>
				</ExtendedData>
				<Point>
					<coordinates>-56.19054,-34.902222,0.0</coordinates>
				</Point>
			</Placemark>
			<Placemark>
				<name>Tranquilo Bar</name>
				<description><![CDATA[21 de Setiembre 3000<br>11300, Montevideo, Uruguay<br>+598   2711 2127<br><br> <br>Uruguay Mapeos (http://sites.google.com/site/uruguaymapeos/Archivos-Google-Earth/home)]]></description>
				<styleUrl>#icon-503-DB4436</styleUrl>
				<ExtendedData>
				</ExtendedData>
				<Point>
					<coordinates>-56.151176,-34.920238,0.0</coordinates>
				</Point>
			</Placemark>
			<Placemark>
				<name>Previsora Martinelli</name>
				<description><![CDATA[Canelones 1454<br>11200, Montevideo, Uruguay<br>+598  2418 1515<br>http://www.martinelli.com.uy/<br><br>Uruguay Mapeos (http://sites.google.com/site/uruguaymapeos/Archivos-Google-Earth/home)]]></description>
				<styleUrl>#icon-503-DB4436</styleUrl>
				<ExtendedData>
				</ExtendedData>
				<Point>
					<coordinates>-56.185112,-34.908413,0.0</coordinates>
				</Point>
			</Placemark>
			<Placemark>
				<name>Flo Café y Bar</name>
				<description><![CDATA[Ruta 10 Km. 161,<br>20001, La Barra, Maldonado, Uruguay<br>+598   4277 1481<br>Hay que pedir la contraseña en la caja.<br><br>Uruguay Mapeos (http://sites.google.com/site/uruguaymapeos/Archivos-Google-Earth/home)]]></description>
				<styleUrl>#icon-503-DB4436</styleUrl>
				<ExtendedData>
				</ExtendedData>
				<Point>
					<coordinates>-54.863083,-34.914049,0.0</coordinates>
				</Point>
			</Placemark>
			<Placemark>
				<name>McDonald's Arocena Shopping Mall</name>
				<description><![CDATA[Arocena 1680,<br>11500, Montevideo, Uruguay<br>http://www.mcdonalds.com.uy/<br>+598   2600 1382<br>Usuario: wifi<br>Contraseña: antel<br><br> <br>Uruguay Mapeos (http://sites.google.com/site/uruguaymapeos/Archivos-Google-Earth/home)]]></description>
				<styleUrl>#icon-503-DB4436</styleUrl>
				<ExtendedData>
				</ExtendedData>
				<Point>
					<coordinates>-56.058144,-34.886513,0.0</coordinates>
				</Point>
			</Placemark>
			<Placemark>
				<name>Ancap La Barra</name>
				<description><![CDATA[Ruta 10 km 159.800,<br>20001, La Barra, Maldonado, Uruguay<br>+598   4277 0188<br>Usuario: wifi<br>Contraseña: antel<br><br>Uruguay Mapeos (http://sites.google.com/site/uruguaymapeos/Archivos-Google-Earth/home)]]></description>
				<styleUrl>#icon-503-DB4436</styleUrl>
				<ExtendedData>
				</ExtendedData>
				<Point>
					<coordinates>-54.86552,-34.910397,0.0</coordinates>
				</Point>
			</Placemark>
			<Placemark>
				<name>Portones Shopping</name>
				<description><![CDATA[Avenida Italia 5775,<br>11500, Montevideo, Uruguay<br>+598   2601 7733<br>Plaza de comidas y centro de conferencias.<br><br>Uruguay Mapeos (http://sites.google.com/site/uruguaymapeos/Archivos-Google-Earth/home)]]></description>
				<styleUrl>#icon-503-DB4436</styleUrl>
				<ExtendedData>
				</ExtendedData>
				<Point>
					<coordinates>-56.081345,-34.881107,0.0</coordinates>
				</Point>
			</Placemark>
			<Placemark>
				<name>McDonald's Punta Shopping</name>
				<description><![CDATA[Av.Roosevelt y Parada 7 Playa Mansa s/n<br>20100, Punta del Este,<br>Maldonado,<br>Uruguay<br>+598 (42) 491611<br>http://www.mcdonalds.com.uy<br><br>Usuario: wifi<br>Contraseña: antel]]></description>
				<styleUrl>#icon-503-DB4436</styleUrl>
				<ExtendedData>
				</ExtendedData>
				<Point>
					<coordinates>-54.933105,-34.940838,0.0</coordinates>
				</Point>
			</Placemark>
			<Placemark>
				<name>Universidad de la Empresa (UDE) Centro</name>
				<description><![CDATA[Soriano 959<br>11100, Montevideo, Uruguay<br>+598   2900 2442<br>http://www.ude.edu.uy<br> <br><br> <br>Uruguay Mapeos (http://sites.google.com/site/uruguaymapeos/Archivos-Google-Earth/home)]]></description>
				<styleUrl>#icon-503-DB4436</styleUrl>
				<ExtendedData>
				</ExtendedData>
				<Point>
					<coordinates>-56.194950000000006,-34.907928,0.0</coordinates>
				</Point>
			</Placemark>
			<Placemark>
				<name>Don Peperone Ciudad Vieja</name>
				<description><![CDATA[Peatonal Sarandi 650,<br>1000, Montevideo, Uruguay<br>+598   2915 7493<br><br> <br>Uruguay Mapeos (http://sites.google.com/site/uruguaymapeos/Archivos-Google-Earth/home)]]></description>
				<styleUrl>#icon-503-DB4436</styleUrl>
				<ExtendedData>
				</ExtendedData>
				<Point>
					<coordinates>-56.202011000000006,-34.906696,0.0</coordinates>
				</Point>
			</Placemark>
			<Placemark>
				<name>Freddo Montevideo Shopping</name>
				<description><![CDATA[Luis Alberto de Herrera 1284,<br>11300, Montevideo, Uruguay<br>http://www.freddo.com.ar/<br><br><br> <br>Uruguay Mapeos (http://sites.google.com/site/uruguaymapeos/Archivos-Google-Earth/home)]]></description>
				<styleUrl>#icon-503-DB4436</styleUrl>
				<ExtendedData>
				</ExtendedData>
				<Point>
					<coordinates>-56.13711200000001,-34.904041,0.0</coordinates>
				</Point>
			</Placemark>
			<Placemark>
				<name>Don Trigo Parque Rodó</name>
				<description><![CDATA[José Requena y García s/n,<br>11200, Montevideo, Uruguay<br>+598   2711 5952<br>http://www.dontrigo.com.uy/<br><br> <br>Uruguay Mapeos (http://sites.google.com/site/uruguaymapeos/Archivos-Google-Earth/home)]]></description>
				<styleUrl>#icon-503-DB4436</styleUrl>
				<ExtendedData>
				</ExtendedData>
				<Point>
					<coordinates>-56.16684,-34.915627,0.0</coordinates>
				</Point>
			</Placemark>
			<Placemark>
				<name>La Vaca</name>
				<description><![CDATA[26 de Marzo 3572,<br>11300, Montevideo, Uruguay<br>+598   2622 5077<br><br> <br>Uruguay Mapeos (http://sites.google.com/site/uruguaymapeos/Archivos-Google-Earth/home)]]></description>
				<styleUrl>#icon-503-DB4436</styleUrl>
				<ExtendedData>
				</ExtendedData>
				<Point>
					<coordinates>-56.135105,-34.905613,0.0</coordinates>
				</Point>
			</Placemark>
			<Placemark>
				<name>Don Peperone Punta del Este</name>
				<description><![CDATA[Avenida Roosevelt y Parada 7 Playa Mansa s/n<br>20100, Punta del Este, Maldonado, Uruguay<br>+598   4249 6924<br> <br><br> <br>Uruguay Mapeos (http://sites.google.com/site/uruguaymapeos/Archivos-Google-Earth/home)]]></description>
				<styleUrl>#icon-503-DB4436</styleUrl>
				<ExtendedData>
				</ExtendedData>
				<Point>
					<coordinates>-54.934689,-34.940575,0.0</coordinates>
				</Point>
			</Placemark>
			<Placemark>
				<name>Don Peperone Portones Shopping</name>
				<description><![CDATA[Avenida Italia 5775,<br>11500, Montevideo, Uruguay<br>+598   2601 7852<br><br> <br>Uruguay Mapeos (http://sites.google.com/site/uruguaymapeos/Archivos-Google-Earth/home)]]></description>
				<styleUrl>#icon-503-DB4436</styleUrl>
				<ExtendedData>
				</ExtendedData>
				<Point>
					<coordinates>-56.081455,-34.881207,0.0</coordinates>
				</Point>
			</Placemark>
			<Placemark>
				<name>Don Peperone Punta Carretas Shopping</name>
				<description><![CDATA[José Ellauri 350,<br>11300, Montevideo, Uruguay<br>+598    2711 1338<br><br> <br>Uruguay Mapeos (http://sites.google.com/site/uruguaymapeos/Archivos-Google-Earth/home)]]></description>
				<styleUrl>#icon-503-DB4436</styleUrl>
				<ExtendedData>
				</ExtendedData>
				<Point>
					<coordinates>-56.159473,-34.923897,0.0</coordinates>
				</Point>
			</Placemark>
			<Placemark>
				<name>Don Peperone Carrasco</name>
				<description><![CDATA[Avenida Arocena 1601,<br>11500, Montevideo, Uruguay<br>+598   2601 5177<br><br> <br>Uruguay Mapeos (http://sites.google.com/site/uruguaymapeos/Archivos-Google-Earth/home)]]></description>
				<styleUrl>#icon-503-DB4436</styleUrl>
				<ExtendedData>
				</ExtendedData>
				<Point>
					<coordinates>-56.057514,-34.888836,0.0</coordinates>
				</Point>
			</Placemark>
			<Placemark>
				<name>Nuevo García</name>
				<description><![CDATA[Arocena 1587,<br>11500, Montevideo, Uruguay<br>+598   2601 8681<br><br> <br>Uruguay Mapeos (http://sites.google.com/site/uruguaymapeos/Archivos-Google-Earth/home)]]></description>
				<styleUrl>#icon-503-DB4436</styleUrl>
				<ExtendedData>
				</ExtendedData>
				<Point>
					<coordinates>-56.057144,-34.889545,0.0</coordinates>
				</Point>
			</Placemark>
			<Placemark>
				<name>Don Peperone Alfa y Beta</name>
				<description><![CDATA[Miguel Barreiro 3243,<br>11300, Montevideo, Uruguay<br>+598   2706 7173<br><br> <br>Uruguay Mapeos (http://sites.google.com/site/uruguaymapeos/Archivos-Google-Earth/home)]]></description>
				<styleUrl>#icon-503-DB4436</styleUrl>
				<ExtendedData>
				</ExtendedData>
				<Point>
					<coordinates>-56.147003,-34.904373,0.0</coordinates>
				</Point>
			</Placemark>
			<Placemark>
				<name>Hotel Ibis Montevideo</name>
				<description><![CDATA[La Cumparsita 1473,<br>11200, Montevideo,Uruguay<br>+598    2413 6245<br>http://www.ibishotel.com/ibis/fichehotel/gb/ibi/3539/fiche_hotel.shtml<br>Sistemas de tarjeta prepaga. U$S 6<br>por 24 hs.<br><br> <br>Uruguay Mapeos (http://sites.google.com/site/uruguaymapeos/Archivos-Google-Earth/home)]]></description>
				<styleUrl>#icon-503-DB4436</styleUrl>
				<ExtendedData>
				</ExtendedData>
				<Point>
					<coordinates>-56.173954,-34.902966,0.0</coordinates>
				</Point>
			</Placemark>
			<Placemark>
				<name>Aeropuerto Internacional de Punta Del Este</name>
				<description><![CDATA[Ruta 93 (Interbalnearia) Km. 113,<br>20100, Laguna del Sauce, Maldonado, Uruguay<br>+598   4255 9777<br>http://www.puntadeleste.aero/<br><br><br> <br>Uruguay Mapeos (http://sites.google.com/site/uruguaymapeos/Archivos-Google-Earth/home)]]></description>
				<styleUrl>#icon-503-DB4436</styleUrl>
				<ExtendedData>
				</ExtendedData>
				<Point>
					<coordinates>-55.098217,-34.860863,0.0</coordinates>
				</Point>
			</Placemark>
			<Placemark>
				<name>Ciudad Vieja Hostel</name>
				<description><![CDATA[Ituzaingó 1436,<br>11000, Montevideo, Uruguay<br>+598   2915 6192<br>http://www.ciudadviejahostel.com/<br> <br><br> <br>Uruguay Mapeos (http://sites.google.com/site/uruguaymapeos/Archivos-Google-Earth/home)]]></description>
				<styleUrl>#icon-503-DB4436</styleUrl>
				<ExtendedData>
				</ExtendedData>
				<Point>
					<coordinates>-56.204308000000005,-34.905972,0.0</coordinates>
				</Point>
			</Placemark>
			<Placemark>
				<name>Montevideo Hostel</name>
				<description><![CDATA[Canelones 935,<br>11100, Montevideo, Uruguay<br>http://montevideohostel.com.uy/<br>+598  2908 1324<br> <br><br> <br>Uruguay Mapeos (http://sites.google.com/site/uruguaymapeos/Archivos-Google-Earth/home)]]></description>
				<styleUrl>#icon-503-DB4436</styleUrl>
				<ExtendedData>
				</ExtendedData>
				<Point>
					<coordinates>-56.195873,-34.908951,0.0</coordinates>
				</Point>
			</Placemark>
			<Placemark>
				<name>Kempinski Colony Park Plaza</name>
				<description><![CDATA[Rambla de las Americas 100,<br>70000, Colonia del Sacramento,<br>Colonia, Uruguay<br>+598   4522 6280<br>http://www.colonyparkplaza.com.ar/<br><br><br> <br>Uruguay Mapeos (http://sites.google.com/site/uruguaymapeos/Archivos-Google-Earth/home)]]></description>
				<styleUrl>#icon-503-DB4436</styleUrl>
				<ExtendedData>
				</ExtendedData>
				<Point>
					<coordinates>-57.852970000000006,-34.472736,0.0</coordinates>
				</Point>
			</Placemark>
			<Placemark>
				<name>El Viajero Hostel Colonia</name>
				<description><![CDATA[Washington Barbot 164,<br>70000, Colonia del Sacramento,<br>Colonia, Uruguay,<br>http://www.elviajerocolonia.com/<br> <br><br> <br>Uruguay Mapeos (http://sites.google.com/site/uruguaymapeos/Archivos-Google-Earth/home)]]></description>
				<styleUrl>#icon-503-DB4436</styleUrl>
				<ExtendedData>
				</ExtendedData>
				<Point>
					<coordinates>-57.84832800000001,-34.471024,0.0</coordinates>
				</Point>
			</Placemark>
			<Placemark>
				<name>El Viajero Hostel Manantiales</name>
				<description><![CDATA[Ruta 10 Km.164,<br>20002, Manantiales, Maldonado, Uruguay<br>+598   4277 4427<br>http://www.elviajerocolonia.com/<br><br><br> <br>Uruguay Mapeos (http://sites.google.com/site/uruguaymapeos/Archivos-Google-Earth/home)]]></description>
				<styleUrl>#icon-503-DB4436</styleUrl>
				<ExtendedData>
				</ExtendedData>
				<Point>
					<coordinates>-54.815308,-34.903824,0.0</coordinates>
				</Point>
			</Placemark>
			<Placemark>
				<name>El Viajero Hostel La Pedrera</name>
				<description><![CDATA[Ruta 10 Km 230,<br>27004, La Pedrera, Rocha, Uruguay<br>Tel: (+598)  99057560<br>http://www.lapedrerahostel.com/<br><br><br> <br>Uruguay Mapeos (http://sites.google.com/site/uruguaymapeos/Archivos-Google-Earth/home)]]></description>
				<styleUrl>#icon-503-DB4436</styleUrl>
				<ExtendedData>
				</ExtendedData>
				<Point>
					<coordinates>-54.124104,-34.580544,0.0</coordinates>
				</Point>
			</Placemark>
			<Placemark>
				<name>Palermo Art Hostel</name>
				<description><![CDATA[Gaboto 1010,<br>11200, Montevideo, Uruguay<br>+598   2410 6519<br>http://www.palermoarthostel.com/<br><br><br> <br>Uruguay Mapeos (http://sites.google.com/site/uruguaymapeos/Archivos-Google-Earth/home)]]></description>
				<styleUrl>#icon-503-DB4436</styleUrl>
				<ExtendedData>
				</ExtendedData>
				<Point>
					<coordinates>-56.166916,-34.898182,0.0</coordinates>
				</Point>
			</Placemark>
			<Placemark>
				<name>Four Points by Sheraton</name>
				<description><![CDATA[Ejido 1275,<br>11100, Montevideo, Uruguay <br>+598   2901 7000<br>http://www.starwoodhotels.com/fourpoints/property/overview/index.html?propertyID=1576<br><br><br> <br>Uruguay Mapeos (http://sites.google.com/site/uruguaymapeos/Archivos-Google-Earth/home)]]></description>
				<styleUrl>#icon-503-DB4436</styleUrl>
				<ExtendedData>
				</ExtendedData>
				<Point>
					<coordinates>-56.186924,-34.906857,0.0</coordinates>
				</Point>
			</Placemark>
			<Placemark>
				<name>Petrobras Ruta 9</name>
				<description><![CDATA[Ruta 9 y Ruta 15,<br>27000, Rocha, Uruguay<br> <br><br> <br>Uruguay Mapeos (http://sites.google.com/site/uruguaymapeos/Archivos-Google-Earth/home)]]></description>
				<styleUrl>#icon-503-DB4436</styleUrl>
				<ExtendedData>
				</ExtendedData>
				<Point>
					<coordinates>-54.322441,-34.490021,0.0</coordinates>
				</Point>
			</Placemark>
			<Placemark>
				<name>Aeropuerto Internacional Laguna de los Patos</name>
				<description><![CDATA[Ruta 1 km 169,500,<br>70000, Colonia del Sacramento,<br>Colonia, Uruguay<br><br><br>Uruguay Mapeos (http://sites.google.com/site/uruguaymapeos/Archivos-Google-Earth/home)]]></description>
				<styleUrl>#icon-503-DB4436</styleUrl>
				<ExtendedData>
				</ExtendedData>
				<Point>
					<coordinates>-57.766434000000004,-34.451351,0.0</coordinates>
				</Point>
			</Placemark>
			<Placemark>
				<name>Hotel La Misión</name>
				<description><![CDATA[Misiones de los Tapes 171,<br>70000, Colonia del Sacramento,<br>Colonia, Uruguay<br>http://www.lamisionhotel.com/<br><br> <br>Uruguay Mapeos (http://sites.google.com/site/uruguaymapeos/Archivos-Google-Earth/home)]]></description>
				<styleUrl>#icon-503-DB4436</styleUrl>
				<ExtendedData>
				</ExtendedData>
				<Point>
					<coordinates>-57.851524,-34.471962,0.0</coordinates>
				</Point>
			</Placemark>
			<Placemark>
				<name>Days Inn Casa del Sol</name>
				<description><![CDATA[Ruta 1, Km 170,<br>70000,Colonia del Sacramento,<br>Colonia, Uruguay<br><br><br>Uruguay Mapeos (http://sites.google.com/site/uruguaymapeos/Archivos-Google-Earth/home)]]></description>
				<styleUrl>#icon-503-DB4436</styleUrl>
				<ExtendedData>
				</ExtendedData>
				<Point>
					<coordinates>-57.816093,-34.455864,0.0</coordinates>
				</Point>
			</Placemark>
			<Placemark>
				<name>Posada Playa Mayor</name>
				<description><![CDATA[Calle del Comercio 111,<br>70000, Colonia del Sacramento,<br>Colonia, Uruguay<br>http://www.posadaplazamayor.com/<br><br> <br>Uruguay Mapeos (http://sites.google.com/site/uruguaymapeos/Archivos-Google-Earth/home)]]></description>
				<styleUrl>#icon-503-DB4436</styleUrl>
				<ExtendedData>
				</ExtendedData>
				<Point>
					<coordinates>-57.852711,-34.471939,0.0</coordinates>
				</Point>
			</Placemark>
			<Placemark>
				<name>Radisson Colonia del Sacramento</name>
				<description><![CDATA[Washington Barbot 283,<br>70000, Colonia del Sacramento,<br>Colonia, Uruguay<br><br><br>Uruguay Mapeos (http://sites.google.com/site/uruguaymapeos/Archivos-Google-Earth/home)]]></description>
				<styleUrl>#icon-503-DB4436</styleUrl>
				<ExtendedData>
				</ExtendedData>
				<Point>
					<coordinates>-57.84890699999999,-34.468868,0.0</coordinates>
				</Point>
			</Placemark>
			<Placemark>
				<name>Posada del Bosque</name>
				<description><![CDATA[Acevedo Diaz 1775,<br>70000, Colonia del Sacramento,<br>Colonia, Uruguay<br>http://www.posadadelbosqueuruguay.com/<br><br><br> <br>Uruguay Mapeos (http://sites.google.com/site/uruguaymapeos/Archivos-Google-Earth/home)]]></description>
				<styleUrl>#icon-503-DB4436</styleUrl>
				<ExtendedData>
				</ExtendedData>
				<Point>
					<coordinates>-57.856899000000006,-34.443653,0.0</coordinates>
				</Point>
			</Placemark>
			<Placemark>
				<name>Hotel Lafayette</name>
				<description><![CDATA[Soriano 1170,<br>11200, Montevideo, Uruguay<br>+598    2902 5656<br><br> <br>Uruguay Mapeos (http://sites.google.com/site/uruguaymapeos/Archivos-Google-Earth/home)]]></description>
				<styleUrl>#icon-503-DB4436</styleUrl>
				<ExtendedData>
				</ExtendedData>
				<Point>
					<coordinates>-56.188244,-34.90749,0.0</coordinates>
				</Point>
			</Placemark>
			<Placemark>
				<name>Facultad de Ingeniería de la Universidad de la República</name>
				<description><![CDATA[Julio Herrera y Reissig 565,<br>11300, Montevideo, Uruguay<br>+598   2711 0698<br>http://www.fing.edu.uy/<br>usuario: antel<br>pass: wifi<br><br> <br>Uruguay Mapeos (http://sites.google.com/site/uruguaymapeos/Archivos-Google-Earth/home)]]></description>
				<styleUrl>#icon-503-DB4436</styleUrl>
				<ExtendedData>
				</ExtendedData>
				<Point>
					<coordinates>-56.16670200000001,-34.918278,0.0</coordinates>
				</Point>
			</Placemark>
			<Placemark>
				<name>McDonalds 18 de Julio y Río Negro</name>
				<description><![CDATA[18 de Julio 1056,<br>11100, Montevideo, Uruguay<br>http://www.mcdonalds.com.uy<br>+598   2903 2553<br>Usuario: wifi<br>Contraseña: antel<br><br> <br>Uruguay Mapeos (http://sites.google.com/site/uruguaymapeos/Archivos-Google-Earth/home)]]></description>
				<styleUrl>#icon-503-DB4436</styleUrl>
				<ExtendedData>
				</ExtendedData>
				<Point>
					<coordinates>-56.193443,-34.906189,0.0</coordinates>
				</Point>
			</Placemark>
			<Placemark>
				<name>McDonald's 18 de Julio y Ejido</name>
				<description><![CDATA[18 de Julio 1353,<br>11200, Montevideo,<br>Montevideo,<br>Uruguay<br>+598 (2) 9024300<br>http://www.mcdonalds.com.uy<br><br>Usuario: wifi<br>Contraseña: antel]]></description>
				<styleUrl>#icon-503-DB4436</styleUrl>
				<ExtendedData>
				</ExtendedData>
				<Point>
					<coordinates>-56.18655,-34.90543,0.0</coordinates>
				</Point>
			</Placemark>
			<Placemark>
				<name>McDonald's 21 de Setiembre y Ellauri</name>
				<description><![CDATA[21 de Setiembre 2852,<br>11300, Montevideo,<br>Montevideo,<br>Uruguay<br>+598 (2) 7115452<br>http://www.mcdonalds.com.uy<br><br>Usuario: wifi<br>Contraseña: antel]]></description>
				<styleUrl>#icon-503-DB4436</styleUrl>
				<ExtendedData>
				</ExtendedData>
				<Point>
					<coordinates>-56.155651,-34.919033,0.0</coordinates>
				</Point>
			</Placemark>
			<Placemark>
				<name>McDonald's 18 de Julio y Gaboto</name>
				<description><![CDATA[18 de Julio 1752,<br>11200, Montevideo,<br>Montevideo,<br>Uruguay<br>+598 (2) 4007512<br>http://www.mcdonalds.com.uy<br><br>Usuario: wifi<br>Contraseña: antel]]></description>
				<styleUrl>#icon-503-DB4436</styleUrl>
				<ExtendedData>
				</ExtendedData>
				<Point>
					<coordinates>-56.17813900000001,-34.90295,0.0</coordinates>
				</Point>
			</Placemark>
			<Placemark>
				<name>McDonald's Tres Cruces</name>
				<description><![CDATA[Bulevar Artigas 1825,<br>11800, Montevideo,<br>Montevideo,<br>Uruguay<br>+598 (2) 4086399<br>http://www.mcdonalds.com.uy<br><br>Planta baja y terminal.<br><br>Usuario: wifi<br>Contraseña: antel]]></description>
				<styleUrl>#icon-503-DB4436</styleUrl>
				<ExtendedData>
				</ExtendedData>
				<Point>
					<coordinates>-56.166294,-34.893867,0.0</coordinates>
				</Point>
			</Placemark>
			<Placemark>
				<name>McDonald's Bulevar Artigas y Palmar</name>
				<description><![CDATA[Bulevar General Artigas 1454,<br>11200, Montevideo,<br>Montevideo,<br>Uruguay<br>+598 (2) 7084424<br>http://www.mcdonalds.com.uy<br><br>Usuario: wifi<br>Contraseña: antel]]></description>
				<styleUrl>#icon-503-DB4436</styleUrl>
				<ExtendedData>
				</ExtendedData>
				<Point>
					<coordinates>-56.163956,-34.900784,0.0</coordinates>
				</Point>
			</Placemark>
			<Placemark>
				<name>McDonald's Joaquín Suárez y Luis Alberto de Herrera</name>
				<description><![CDATA[Avenida Joaquín Suárez 3774,<br>11700, Montevideo,<br>Montevideo,<br>Uruguay<br>+598 (2) 3363009<br>http://www.mcdonalds.com.uy<br><br>Usuario: wifi<br>Contraseña: antel]]></description>
				<styleUrl>#icon-503-DB4436</styleUrl>
				<ExtendedData>
				</ExtendedData>
				<Point>
					<coordinates>-56.196098,-34.859558,0.0</coordinates>
				</Point>
			</Placemark>
			<Placemark>
				<name>McDonald's 8 de Octubre y Bulevar Batlle y Ordónez</name>
				<description><![CDATA[Avenida 8 de Octubre 3395,<br>11600, Montevideo,<br>Montevideo,<br>Uruguay<br>+598 (2) 4877802<br>http://www.mcdonalds.com.uy<br><br>Usuario: wifi<br>Contraseña: antel]]></description>
				<styleUrl>#icon-503-DB4436</styleUrl>
				<ExtendedData>
				</ExtendedData>
				<Point>
					<coordinates>-56.1483,-34.879269,0.0</coordinates>
				</Point>
			</Placemark>
			<Placemark>
				<name>McDonald's Agraciada y Asencio</name>
				<description><![CDATA[Avenida Agraciada 2986,<br>11800, Montevideo,<br>Montevideo,<br>Uruguay<br>+598 (2) 2082807<br>http://www.mcdonalds.com.uy<br><br>Usuario: wifi<br>Contraseña: antel]]></description>
				<styleUrl>#icon-503-DB4436</styleUrl>
				<ExtendedData>
				</ExtendedData>
				<Point>
					<coordinates>-56.199051,-34.875484,0.0</coordinates>
				</Point>
			</Placemark>
			<Placemark>
				<name>Conrad Punta del Este Resort y Casino</name>
				<description><![CDATA[Parada 4 Playa Mansa,<br>20100, Punta del Este,<br>Maldonado,<br>Uruguay<br>http://conrad.com.uy/<br>+598 (42) 491111]]></description>
				<styleUrl>#icon-503-DB4436</styleUrl>
				<ExtendedData>
				</ExtendedData>
				<Point>
					<coordinates>-54.93902200000001,-34.950203,0.0</coordinates>
				</Point>
			</Placemark>
			<Placemark>
				<name>Planet Montevideo Hostel</name>
				<description><![CDATA[Canelones 1095,<br>11100, Montevideo,<br>Montevideo,<br>Uruguay<br>+598 (2) 9000733]]></description>
				<styleUrl>#icon-503-DB4436</styleUrl>
				<ExtendedData>
				</ExtendedData>
				<Point>
					<coordinates>-56.192291,-34.908714,0.0</coordinates>
				</Point>
			</Placemark>
			<Placemark>
				<name>Universidad Católica del Uruguay</name>
				<description><![CDATA[Avenida 8 de Octubre 2738,<br>11600, Montevideo,<br>Montevideo,<br>Uruguay<br>http://www.ucu.edu.uy<br>598 (2) 4872717<br><br>Usuario: dralion<br>Contraseña: enunlugardelamancha]]></description>
				<styleUrl>#icon-503-DB4436</styleUrl>
				<ExtendedData>
				</ExtendedData>
				<Point>
					<coordinates>-56.159061,-34.888668,0.0</coordinates>
				</Point>
			</Placemark>
			<Placemark>
				<name>Hotel Armond Suites</name>
				<description><![CDATA[21 de Setiembre 2885,<br>11300, Montevideo,<br>Montevideo,<br>Uruguay<br>http://www.armonsuites.com.uy/<br>+598 (2) 7124117]]></description>
				<styleUrl>#icon-503-DB4436</styleUrl>
				<ExtendedData>
				</ExtendedData>
				<Point>
					<coordinates>-56.154739,-34.919094,0.0</coordinates>
				</Point>
			</Placemark>
			<Placemark>
				<name>La Puerta Negra Bed &amp; Breakfast Gay</name>
				<description><![CDATA[Durazno 1525,<br>11200, Montevideo,<br>Montevideo,<br>Uruguay<br>http://www.lapuertanegragay.com/<br>+598 (2) 4106554]]></description>
				<styleUrl>#icon-503-DB4436</styleUrl>
				<ExtendedData>
				</ExtendedData>
				<Point>
					<coordinates>-56.182171000000004,-34.909882,0.0</coordinates>
				</Point>
			</Placemark>
			<Placemark>
				<name>Apart Hotel Beira Mar</name>
				<description><![CDATA[Parada 42 Playa Mansa,<br>20100, Punta del Este,<br>Maldonado,<br>Uruguay<br>http://www.beiramar.com.uy/<br>+598 (42) 222118]]></description>
				<styleUrl>#icon-503-DB4436</styleUrl>
				<ExtendedData>
				</ExtendedData>
				<Point>
					<coordinates>-55.016075,-34.908703,0.0</coordinates>
				</Point>
			</Placemark>
			<Placemark>
				<name>Hotel Belmont House</name>
				<description><![CDATA[Avenida Rivera 6512<br>11500, Montevideo,<br>Montevideo,<br>Uruguay<br>http://www.belmonthouse.com.uy<br>+598 (2) 6000430]]></description>
				<styleUrl>#icon-503-DB4436</styleUrl>
				<ExtendedData>
				</ExtendedData>
				<Point>
					<coordinates>-56.061722,-34.887524,0.0</coordinates>
				</Point>
			</Placemark>
			<Placemark>
				<name>Four Seasons Resort Carmelo</name>
				<description><![CDATA[Ruta 21, km 262,<br>Carmelo,<br>Colonia,<br>Uruguay<br>http://www.fourseasons.com/carmelo/<br>+598 (542) 9000]]></description>
				<styleUrl>#icon-503-DB4436</styleUrl>
				<ExtendedData>
				</ExtendedData>
				<Point>
					<coordinates>-58.343861,-33.959862,0.0</coordinates>
				</Point>
			</Placemark>
			<Placemark>
				<name>Hotel Horacio Quiroga</name>
				<description><![CDATA[Represa de Salto Grande<br>Parque del Lago,<br>Salto,<br>Uruguay<br>http://www.hotelhoracioquiroga.com/<br>+598 (73) 34411]]></description>
				<styleUrl>#icon-503-DB4436</styleUrl>
				<ExtendedData>
				</ExtendedData>
				<Point>
					<coordinates>-57.922218,-31.273525000000003,0.0</coordinates>
				</Point>
			</Placemark>
			<Placemark>
				<name>Hotel El Dorado</name>
				<description><![CDATA[Sarandí 20,<br>50000, Salto,<br>Salto,<br>Uruguay<br>http://www.eldoradosalto.com/<br>+598 (73) 25042]]></description>
				<styleUrl>#icon-503-DB4436</styleUrl>
				<ExtendedData>
				</ExtendedData>
				<Point>
					<coordinates>-57.966839,-31.387568,0.0</coordinates>
				</Point>
			</Placemark>
			<Placemark>
				<name>Hotel Géminis</name>
				<description><![CDATA[Calle Timbó s/n,<br>50000, Termas del Daymán,<br>Salto,<br>Uruguay<br>http://www.geminishotel.com.ar/ <br>+598 (73) 69108]]></description>
				<styleUrl>#icon-503-DB4436</styleUrl>
				<ExtendedData>
				</ExtendedData>
				<Point>
					<coordinates>-57.90703200000001,-31.457699,0.0</coordinates>
				</Point>
			</Placemark>
			<Placemark>
				<name>Posada del siglo XIX</name>
				<description><![CDATA[Ruta 3 km 479,300,<br>50000, Termas del Daymán,<br>Salto,<br>Uruguay<br>http://www.posadasigloxix.com.uy/<br>+598 (73) 69955<br><br>Cafetería.]]></description>
				<styleUrl>#icon-503-DB4436</styleUrl>
				<ExtendedData>
				</ExtendedData>
				<Point>
					<coordinates>-57.91214,-31.448431000000003,0.0</coordinates>
				</Point>
			</Placemark>
			<Placemark>
				<name>Hotel Español</name>
				<description><![CDATA[Brasil 822,<br>50000, Salto,<br>Salto,<br>Uruguay<br>+598 (73) 25400<br>http://www.viatermal.com/hotelespanolsalto/]]></description>
				<styleUrl>#icon-503-DB4436</styleUrl>
				<ExtendedData>
				</ExtendedData>
				<Point>
					<coordinates>-57.96476,-31.386538,0.0</coordinates>
				</Point>
			</Placemark>
			<Placemark>
				<name>Hotel Solar del Acuario</name>
				<description><![CDATA[50000, Termas del Daymán,<br>Salto,<br>Uruguay<br>http://www.solardelacuario.com/<br>+598 (73) 69206]]></description>
				<styleUrl>#icon-503-DB4436</styleUrl>
				<ExtendedData>
				</ExtendedData>
				<Point>
					<coordinates>-57.906586,-31.456810000000004,0.0</coordinates>
				</Point>
			</Placemark>
			<Placemark>
				<name>AWA Boutique + Design Hotel</name>
				<description><![CDATA[Parada 7 Playa Mansa<br>20100, Punta del Este,<br>Maldonado,<br>Uruguay<br>http://www.awahotel.com/<br>+598 (42) 499999]]></description>
				<styleUrl>#icon-503-DB4436</styleUrl>
				<ExtendedData>
				</ExtendedData>
				<Point>
					<coordinates>-54.928829,-34.940617,0.0</coordinates>
				</Point>
			</Placemark>
			<Placemark>
				<name>Restaurant Tannat</name>
				<description><![CDATA[San José 1063,<br>11100, Montevideo,<br>Montevideo,<br>Uruguay<br>+598 (2) 9008127<br>http://www.tannatrestaurant.com/]]></description>
				<styleUrl>#icon-503-DB4436</styleUrl>
				<ExtendedData>
				</ExtendedData>
				<Point>
					<coordinates>-56.189232000000004,-34.869595,0.0</coordinates>
				</Point>
			</Placemark>
			<Placemark>
				<name>Hostería y Estancia La Paz</name>
				<description><![CDATA[Ruta 24 km 86,500/Ruta 3 km 336<br>Colonia La Paz,<br>Paysandú,<br>Uruguay<br>http://www.estancialapaz.com.uy<br>+598 (720) 2272]]></description>
				<styleUrl>#icon-503-DB4436</styleUrl>
				<ExtendedData>
				</ExtendedData>
				<Point>
					<coordinates>-57.958759,-32.529591,0.0</coordinates>
				</Point>
			</Placemark>
			<Placemark>
				<name>Days Inn Montevideo</name>
				<description><![CDATA[Eduardo Acevedo Díaz 1821,<br>11800, Montevideo,<br>Montevideo,<br>Uruguay<br>http://www.daysinn.com.uy<br>+598 (2) 4004840]]></description>
				<styleUrl>#icon-503-DB4436</styleUrl>
				<ExtendedData>
				</ExtendedData>
				<Point>
					<coordinates>-56.218071,-34.764744,0.0</coordinates>
				</Point>
			</Placemark>
			<Placemark>
				<name>Apart Hotel Martí</name>
				<description><![CDATA[Juan Marti 3325,<br>11300, Montevideo,<br>Montevideo,<br>Uruguay<br>http://www.martiaparthotel.com.uy/<br>+598 (2) 7096070]]></description>
				<styleUrl>#icon-503-DB4436</styleUrl>
				<ExtendedData>
				</ExtendedData>
				<Point>
					<coordinates>-56.14959,-34.912056,0.0</coordinates>
				</Point>
			</Placemark>
			<Placemark>
				<name>Sheraton Colonia del Sacramento</name>
				<description><![CDATA[Continuación de la Rambla de Las Américas s/n,<br>70000, Colonia del Sacramento,<br>Colonia,<br>Uruguay<br>http://www.starwoodhotels.com/sheraton/property/overview/index.html?propertyID=1534<br>+598 (52) 29000]]></description>
				<styleUrl>#icon-503-DB4436</styleUrl>
				<ExtendedData>
				</ExtendedData>
				<Point>
					<coordinates>-57.878983,-34.436283,0.0</coordinates>
				</Point>
			</Placemark>
			<Placemark>
				<name>Hotel Genovés</name>
				<description><![CDATA[Rambla de los Argentinos 1050,<br>20200, Piriápolis,<br>Maldonado,<br>Uruguay<br>http://www.hotelgenoves.com.uy<br>+598 )43) 22505]]></description>
				<styleUrl>#icon-503-DB4436</styleUrl>
				<ExtendedData>
				</ExtendedData>
				<Point>
					<coordinates>-55.274685,-34.869411,0.0</coordinates>
				</Point>
			</Placemark>
			<Placemark>
				<name>Hotel La Pedrera</name>
				<description><![CDATA[Ruta 10 Km 228,500,<br>27004, La Pedrera,<br>Rocha,<br>Uruguay<br>http://www.reservas.net/app/hotel.exe?164.00000,74.00000,ESP<br>+598 (479) 2001]]></description>
				<styleUrl>#icon-503-DB4436</styleUrl>
				<ExtendedData>
				</ExtendedData>
				<Point>
					<coordinates>-54.12422600000001,-34.587982,0.0</coordinates>
				</Point>
			</Placemark>
			<Placemark>
				<name>Salto Shopping y Terminal</name>
				<description><![CDATA[Avenida Batlle 2265,<br>50000, Salto,<br>Salto,<br>Uruguay<br>http://www.saltoshopping.com/<br>+598 (073) 36200]]></description>
				<styleUrl>#icon-503-DB4436</styleUrl>
				<ExtendedData>
				</ExtendedData>
				<Point>
					<coordinates>-57.944286,-31.384090000000004,0.0</coordinates>
				</Point>
			</Placemark>
			<Placemark>
				<name>Posada del Virrey</name>
				<description><![CDATA[Calle España 217,<br>70000, Colonia del Sacramento,<br>Colonia,<br>Uruguay<br>http://www.posadadelvirrey.com/<br>+598 (52) 22223]]></description>
				<styleUrl>#icon-503-DB4436</styleUrl>
				<ExtendedData>
				</ExtendedData>
				<Point>
					<coordinates>-57.851944,-34.469646,0.0</coordinates>
				</Point>
			</Placemark>
			<Placemark>
				<name>Hotel Embajador</name>
				<description><![CDATA[San José 1212,<br>11200, Montevideo,<br>Montevideo,<br>Uruguay<br>http://www.hotelembajador.com/<br>+598 (2) 9020012]]></description>
				<styleUrl>#icon-503-DB4436</styleUrl>
				<ExtendedData>
				</ExtendedData>
				<Point>
					<coordinates>-56.18983800000001,-34.906876,0.0</coordinates>
				</Point>
			</Placemark>
			<Placemark>
				<name>Gran Hotel Fray Bentos</name>
				<description><![CDATA[Paraguay 3272,<br>65000, Fray Bentos,<br>Fray Bentos,<br>Uruguay<br>http://www.granhotelfb.com/<br>+598 (56) 20566<br><br>Áreas comunes.]]></description>
				<styleUrl>#icon-503-DB4436</styleUrl>
				<ExtendedData>
				</ExtendedData>
				<Point>
					<coordinates>-58.31512800000001,-33.113724,0.0</coordinates>
				</Point>
			</Placemark>
			<Placemark>
				<name>La Perdiz</name>
				<description><![CDATA[Guipuzcoa 350,<br>11300, Montevideo,<br>Montevideo,<br>Uruguay<br>+598 (2) 7118963]]></description>
				<styleUrl>#icon-503-DB4436</styleUrl>
				<ExtendedData>
				</ExtendedData>
				<Point>
					<coordinates>-56.156852,-34.925015,0.0</coordinates>
				</Point>
			</Placemark>
			<Placemark>
				<name>Villaggio Hotel Termal</name>
				<description><![CDATA[Ruta 3 km 432,<br>Termas de Guaviyú,<br>Paysandú,<br>Uruguay<br>http://www.complejovillaggio.com/<br>598 (750) 4041]]></description>
				<styleUrl>#icon-503-DB4436</styleUrl>
				<ExtendedData>
				</ExtendedData>
				<Point>
					<coordinates>-57.885246,-31.839935,0.0</coordinates>
				</Point>
			</Placemark>
			<Placemark>
				<name>San Fernando Plaza Hotel</name>
				<description><![CDATA[18 de julio esquina 25 de mayo,<br>20000, Maldonado,<br>Maldonado,<br>Uruguay<br>http://www.sanfernandoplazahotel.com<br>+598 (42) 242410]]></description>
				<styleUrl>#icon-503-DB4436</styleUrl>
				<ExtendedData>
				</ExtendedData>
				<Point>
					<coordinates>-54.95945,-34.909927,0.0</coordinates>
				</Point>
			</Placemark>
			<Placemark>
				<name>Don Antonio Posada</name>
				<description><![CDATA[Ituzaingó 232,<br>70000, Colonia del Sacramento,<br>Colonia,<br>Uruguay<br>http://www.posadadonantonio.com/<br>+598 (52) 25344]]></description>
				<styleUrl>#icon-503-DB4436</styleUrl>
				<ExtendedData>
				</ExtendedData>
				<Point>
					<coordinates>-57.84949900000001,-34.46991,0.0</coordinates>
				</Point>
			</Placemark>
			<Placemark>
				<name>Hotel Brisas del Hum</name>
				<description><![CDATA[Artigas esq. Gimenez,<br>75000, Mercedes,<br>Soriano,<br>Uruguay<br>http://www.granh.com/brisas_mercedes/]]></description>
				<styleUrl>#icon-503-DB4436</styleUrl>
				<ExtendedData>
				</ExtendedData>
				<Point>
					<coordinates>-58.029441999999996,-33.247768,0.0</coordinates>
				</Point>
			</Placemark>
			<Placemark>
				<name>Hotel Club del Lago</name>
				<description><![CDATA[Ruta Intelbanearia km 116,<br>20100, Laguna del Sauce, Maldonado, Uruguay<br>http://www.clubdellagohotel.com/<br>+598   4257 7444<br><br> <br>Uruguay Mapeos (http://sites.google.com/site/uruguaymapeos/Archivos-Google-Earth/home)]]></description>
				<styleUrl>#icon-503-DB4436</styleUrl>
				<ExtendedData>
				</ExtendedData>
				<Point>
					<coordinates>-55.055603,-34.859032000000006,0.0</coordinates>
				</Point>
			</Placemark>
			<Placemark>
				<name>Costa Azul</name>
				<description><![CDATA[Juan Benito Blanco 3257,<br>11300, Montevideo,<br>Montevideo,<br>Uruguay<br>+598 (2) 7089212]]></description>
				<styleUrl>#icon-503-DB4436</styleUrl>
				<ExtendedData>
				</ExtendedData>
				<Point>
					<coordinates>-56.142563,-34.908844,0.0</coordinates>
				</Point>
			</Placemark>
			<Placemark>
				<name>Alliance Française de Montevideo (Alianza Francesa)</name>
				<description><![CDATA[Bulevar Artigas 1229,<br>11200, Montevideo,<br>Montevideo,<br>Uruguay<br>http://www.alliancefrancaise.com.uy<br>+598 (2) 4000505]]></description>
				<styleUrl>#icon-503-DB4436</styleUrl>
				<ExtendedData>
				</ExtendedData>
				<Point>
					<coordinates>-56.16419200000001,-34.905106,0.0</coordinates>
				</Point>
			</Placemark>
			<Placemark>
				<name>Umaga</name>
				<description><![CDATA[Francisco Ros 2757,<br>11300, Montevideo,<br>Montevideo,<br>Uruguay<br>+598 (2) 7123141]]></description>
				<styleUrl>#icon-503-DB4436</styleUrl>
				<ExtendedData>
				</ExtendedData>
				<Point>
					<coordinates>-56.15799,-34.918186,0.0</coordinates>
				</Point>
			</Placemark>
			<Placemark>
				<name>Tryp Montevideo (Meliá Confort)</name>
				<description><![CDATA[Héctor Miranda, 2361<br>11300, Montevideo,<br>Montevideo,<br>Uruguay<br>http://www.solmelia.com/solNew/hoteles/jsp/C_Hotel_Description.jsp?codigoHotel=5825<br>+598 (2) 7103800]]></description>
				<styleUrl>#icon-503-DB4436</styleUrl>
				<ExtendedData>
				</ExtendedData>
				<Point>
					<coordinates>-56.161213,-34.922508,0.0</coordinates>
				</Point>
			</Placemark>
			<Placemark>
				<name>McDonald's Punta Carretas Shopping</name>
				<description><![CDATA[José Ellauri 350,<br>11300, Montevideo,<br>Montevideo,<br>Uruguay<br>http://ww.mcdonalds.com.uy]]></description>
				<styleUrl>#icon-503-DB4436</styleUrl>
				<ExtendedData>
				</ExtendedData>
				<Point>
					<coordinates>-56.15918,-34.923515,0.0</coordinates>
				</Point>
			</Placemark>
			<Placemark>
				<name>La Lupita</name>
				<description><![CDATA[Luis de la Torre 565,<br>11300, Montevideo,<br>Montevideo,<br>Uruguay<br>+598 (2) 7121966]]></description>
				<styleUrl>#icon-503-DB4436</styleUrl>
				<ExtendedData>
				</ExtendedData>
				<Point>
					<coordinates>-56.158997,-34.918629,0.0</coordinates>
				</Point>
			</Placemark>
			<Placemark>
				<name>Sa Cuina</name>
				<description><![CDATA[Hector Miranda 2410,<br>11300, Montevideo,<br>Montevideo,<br>Uruguay<br>+598 (2) 7109686]]></description>
				<styleUrl>#icon-503-DB4436</styleUrl>
				<ExtendedData>
				</ExtendedData>
				<Point>
					<coordinates>-56.160831,-34.923058,0.0</coordinates>
				</Point>
			</Placemark>
			<Placemark>
				<name>Subway 21 de Setiembre</name>
				<description><![CDATA[21 de Setiembre 2863,<br>11300, Montevideo,<br>Montevideo,<br>Uruguay<br>http://world.subway.com/Countries/frmLocatorResult.aspx?CC=URU&LC=ENG&Mode=<br>+598 (2) 7105104]]></description>
				<styleUrl>#icon-503-DB4436</styleUrl>
				<ExtendedData>
				</ExtendedData>
				<Point>
					<coordinates>-56.155056,-34.918999,0.0</coordinates>
				</Point>
			</Placemark>
			<Placemark>
				<name>Subway 8 de Octubre</name>
				<description><![CDATA[8 de Octobre 2452 ,<br>11300, Montevideo,<br>Montevideo,<br>Uruguay<br>http://world.subway.com/Countries/frmLocatorResult.aspx?CC=URU&LC=ENG&Mode=<br>+598 (2) 4003644]]></description>
				<styleUrl>#icon-503-DB4436</styleUrl>
				<ExtendedData>
				</ExtendedData>
				<Point>
					<coordinates>-56.163219,-34.89344,0.0</coordinates>
				</Point>
			</Placemark>
			<Placemark>
				<name>Il Mondo della Pizza 21 de Setiembre</name>
				<description><![CDATA[21 de Setiembre 2816,<br>11300, Montevideo,<br>Montevideo,<br>Uruguay<br>+598 (2) 7121790]]></description>
				<styleUrl>#icon-503-DB4436</styleUrl>
				<ExtendedData>
				</ExtendedData>
				<Point>
					<coordinates>-56.156586,-34.91864,0.0</coordinates>
				</Point>
			</Placemark>
			<Placemark>
				<name>La Taberna del Diablo</name>
				<description><![CDATA[Gonzalo Ramírez 2051,<br>11200, Montevideo,<br>Montevideo,<br>Uruguay<br>http://www.latabernadeldiablo.com<br>+598 (2) 4137543]]></description>
				<styleUrl>#icon-503-DB4436</styleUrl>
				<ExtendedData>
				</ExtendedData>
				<Point>
					<coordinates>-56.169876,-34.911591,0.0</coordinates>
				</Point>
			</Placemark>
			<Placemark>
				<name>Carrito El Cóndor</name>
				<description><![CDATA[Rambla costanera de Pocitos s/n,<br>11300, Montevideo,<br>Montevideo,<br>Uruguay<br><br>SSID: default]]></description>
				<styleUrl>#icon-503-DB4436</styleUrl>
				<ExtendedData>
				</ExtendedData>
				<Point>
					<coordinates>-56.136635000000005,-34.911125,0.0</coordinates>
				</Point>
			</Placemark>
			<Placemark>
				<name>Yacht Club Uruguayo</name>
				<description><![CDATA[Puerto del Buceo s/n,<br>11300, Montevideo,<br>Montevideo,<br>Uruguay<br>http://www.ycu.org.uy/<br>+598 (2) 6284185<br><br>Restaurant]]></description>
				<styleUrl>#icon-503-DB4436</styleUrl>
				<ExtendedData>
				</ExtendedData>
				<Point>
					<coordinates>-56.130962000000004,-34.909901,0.0</coordinates>
				</Point>
			</Placemark>
			<Placemark>
				<name>Mera</name>
				<description><![CDATA[Avenida 8 de Octubre esquina Avenida General Garibaldi]]></description>
				<styleUrl>#icon-503-DB4436</styleUrl>
				<ExtendedData>
				</ExtendedData>
				<Point>
					<coordinates>-56.159878,-34.889469,0.0</coordinates>
				</Point>
			</Placemark>
			<Placemark>
				<name>Pany Express</name>
				<description><![CDATA[Plaza Libertad 1343,<br>11100, Montevideo,<br>Montevideo,<br>Uruguay<br>+598 (2) 9031624]]></description>
				<styleUrl>#icon-503-DB4436</styleUrl>
				<ExtendedData>
				</ExtendedData>
				<Point>
					<coordinates>-56.191967,-34.906372,0.0</coordinates>
				</Point>
			</Placemark>
			<Placemark>
				<name>Hotel Lancaster</name>
				<description><![CDATA[Plaza Libertad 1334,<br>11100, Montevideo,<br>Montevideo,<br>Uruguay<br>+598 (2) 920029]]></description>
				<styleUrl>#icon-503-DB4436</styleUrl>
				<ExtendedData>
				</ExtendedData>
				<Point>
					<coordinates>-56.190662,-34.906265,0.0</coordinates>
				</Point>
			</Placemark>
			<Placemark>
				<name>Cyber Cuchilla Alta</name>
				<description><![CDATA[Calle 13, a 30m de calle Montevideo<br>16400, Cuchilla Alta,<br>Canelones,<br>Uruguay]]></description>
				<styleUrl>#icon-503-DB4436</styleUrl>
				<ExtendedData>
				</ExtendedData>
				<Point>
					<coordinates>-55.495323,-34.792599,0.0</coordinates>
				</Point>
			</Placemark>
			<Placemark>
				<name>Hotel Rex</name>
				<description><![CDATA[Manuel Freire 968,<br>20200, Piriapolis,<br>Maldonado,<br>Uruguay<br>http://www.hotelrex.com.uy/<br>+598 (43) 22543<br><br>Contraseña: Hotel_Rex_2008]]></description>
				<styleUrl>#icon-503-DB4436</styleUrl>
				<ExtendedData>
				</ExtendedData>
				<Point>
					<coordinates>-55.276756,-34.865505,0.0</coordinates>
				</Point>
			</Placemark>
			<Placemark>
				<name>Internet &amp; Café 21</name>
				<description><![CDATA[21 de Setiembre 2889,<br>11300, Montevideo,<br>Montevideo,<br>Uruguay<br>http://www.internetcafe21.com.uy/<br>+598 (2) 7125895]]></description>
				<styleUrl>#icon-503-DB4436</styleUrl>
				<ExtendedData>
				</ExtendedData>
				<Point>
					<coordinates>-56.154556,-34.919067,0.0</coordinates>
				</Point>
			</Placemark>
			<Placemark>
				<name>Plaza Libertad</name>
				<description><![CDATA[Entre las calles Treintay Tres, 25 de Mayo, Roosevelt y Domingo Pérez,<br>30000, Minas,<br>Lavalleja,<br>Uruguay<br><br>Convenio de Netgate con la Intendencia de Lavalleja.]]></description>
				<styleUrl>#icon-503-DB4436</styleUrl>
				<ExtendedData>
				</ExtendedData>
				<Point>
					<coordinates>-55.238174,-34.377583,0.0</coordinates>
				</Point>
			</Placemark>
			<Placemark>
				<name>Rosedal del Prado de la Piedra Alta</name>
				<description><![CDATA[Avenida Aparicio Saravia,<br>94000, Florida,<br>Florida,<br>Uruguay<br><br>Parte del proyecto Florida Digital de la IMF y el programa Comunas Digitales de Antel.]]></description>
				<styleUrl>#icon-503-DB4436</styleUrl>
				<ExtendedData>
				</ExtendedData>
				<Point>
					<coordinates>-56.20528,-34.098301000000006,0.0</coordinates>
				</Point>
			</Placemark>
			<Placemark>
				<name>Casa de los Deportes</name>
				<description><![CDATA[Lavalleja entre Antonio María Fernandez e Independencia,<br>94000, Florida,<br>Florida,<br>Uruguay<br><br>Parte del proyecto Florida Digital de la IMF y el programa Comunas Digitales de Antel.]]></description>
				<styleUrl>#icon-503-DB4436</styleUrl>
				<ExtendedData>
				</ExtendedData>
				<Point>
					<coordinates>-56.211506,-34.101009,0.0</coordinates>
				</Point>
			</Placemark>
			<Placemark>
				<name>Plaza Italia</name>
				<description><![CDATA[Guglielmetti y Av. del Cementerio,<br>94000, Florida,<br>Florida,<br>Uruguay<br><br>Parte del proyecto Florida Digital de la IMF y el programa Comunas Digitales de Antel.]]></description>
				<styleUrl>#icon-503-DB4436</styleUrl>
				<ExtendedData>
				</ExtendedData>
				<Point>
					<coordinates>-56.219215000000005,-34.100086,0.0</coordinates>
				</Point>
			</Placemark>
			<Placemark>
				<name>Facultad de Arquitectura</name>
				<description><![CDATA[Bulevar Artigas 1031,<br>11200, Montevideo,<br>Montevideo,<br>Uruguay<br>+598 (2) 4001106<br>http://www.farq.edu.uy/]]></description>
				<styleUrl>#icon-503-DB4436</styleUrl>
				<ExtendedData>
				</ExtendedData>
				<Point>
					<coordinates>-56.163418,-34.91029,0.0</coordinates>
				</Point>
			</Placemark>
			<Placemark>
				<name>Francis</name>
				<description><![CDATA[Luis de la Torre 502,<br>11300, Montevideo,<br>Montevideo,<br>Uruguay<br>http://www.francis.com.uy<br>+598 (2) 7118603<br><br>La contraseña se debe pedir al personal.]]></description>
				<styleUrl>#icon-503-DB4436</styleUrl>
				<ExtendedData>
				</ExtendedData>
				<Point>
					<coordinates>-56.376343,-34.773205,0.0</coordinates>
				</Point>
			</Placemark>
			<Placemark>
				<name>Cambio Gales</name>
				<description><![CDATA[Rincón 483,<br>11000, Montevideo,<br>Montevideo,<br>Uruguay<br>http://www.cambiogales.com.uy/<br>+598 (2) 9153310]]></description>
				<styleUrl>#icon-503-DB4436</styleUrl>
				<ExtendedData>
				</ExtendedData>
				<Point>
					<coordinates>-56.205872,-34.906769,0.0</coordinates>
				</Point>
			</Placemark>
			<Placemark>
				<name>Crystal Palace Hotel</name>
				<description><![CDATA[Av 18 de Julio 1210,<br>11100, Montevideo,<br>Montevideo,<br>Uruguay<br>http://www.crystalpalacehotel.com.uy/<br>+598 (2) 9004645]]></description>
				<styleUrl>#icon-503-DB4436</styleUrl>
				<ExtendedData>
				</ExtendedData>
				<Point>
					<coordinates>-56.189499,-34.905872,0.0</coordinates>
				</Point>
			</Placemark>
			<Placemark>
				<name>Hotel Balmoral Plaza</name>
				<description><![CDATA[Plaza Libertad 1126,<br>11100, Montevideo,<br>Montevideo,<br>Uruguay<br>http://www.balmoral.com.uy/<br>+598 (2) 9022329<br><br>Contraseña:balmoral2000]]></description>
				<styleUrl>#icon-503-DB4436</styleUrl>
				<ExtendedData>
				</ExtendedData>
				<Point>
					<coordinates>-56.191845,-34.906548,0.0</coordinates>
				</Point>
			</Placemark>
			<Placemark>
				<name>Hotel NH Columbia</name>
				<description><![CDATA[Rambla Gran Bretaña 473,<br>11000, Montevideo,<br>Montevideo,<br>Uruguay<br>http://www.nh-hoteles.es/nh/es/hoteles/uruguay/montevideo/nh-columbia.html<br>+598 (2) 9160001]]></description>
				<styleUrl>#icon-503-DB4436</styleUrl>
				<ExtendedData>
				</ExtendedData>
				<Point>
					<coordinates>-56.204315,-34.90955,0.0</coordinates>
				</Point>
			</Placemark>
			<Placemark>
				<name>Heming.way</name>
				<description><![CDATA[Rambla República de México s/n,<br>11500, Montevideo,<br>Montevideo,<br>Uruguay<br>+598 (2) 6000121]]></description>
				<styleUrl>#icon-503-DB4436</styleUrl>
				<ExtendedData>
				</ExtendedData>
				<Point>
					<coordinates>-56.082062,-34.89871600000001,0.0</coordinates>
				</Point>
			</Placemark>
			<Placemark>
				<name>Parque de Vaciones UTE - ANTEL</name>
				<description><![CDATA[Ruta 12 Km 347,500,<br>Minas,<br>Lavalleja,<br>Uruguay<br>http://www.parquedevacaciones.com.uy/<br>+598 (044) 30000<br><br>Usuario: ANTEL<br>Contraseña: ANTEL]]></description>
				<styleUrl>#icon-503-DB4436</styleUrl>
				<ExtendedData>
				</ExtendedData>
				<Point>
					<coordinates>-55.193348,-34.42461,0.0</coordinates>
				</Point>
			</Placemark>
			<Placemark>
				<name>Plaza Independencia de Mercedes</name>
				<description><![CDATA[Artigas esq. Gimenez,<br>75000, Mercedes,<br>Soriano,<br>Uruguay]]></description>
				<styleUrl>#icon-503-DB4436</styleUrl>
				<ExtendedData>
				</ExtendedData>
				<Point>
					<coordinates>-58.029827999999995,-33.247616,0.0</coordinates>
				</Point>
			</Placemark>
			<Placemark>
				<name>Plaza Artigas</name>
				<description><![CDATA[Av. Brasil y Av. Salto<br>60000, Paysandú,<br>Paysandú,<br>Uruguay<br>http://www.paysandu.gub.uy/]]></description>
				<styleUrl>#icon-503-DB4436</styleUrl>
				<ExtendedData>
				</ExtendedData>
				<Point>
					<coordinates>-58.09467300000001,-32.315571,0.0</coordinates>
				</Point>
			</Placemark>
			<Placemark>
				<name>Café Irazú</name>
				<description><![CDATA[Juan Carlos Gómez 1315,<br>11000, Montevideo,<br>Montevideo,<br>Uruguay<br>http://www.cafeirazu.com.uy/<br>+598 (2) 9157434]]></description>
				<styleUrl>#icon-503-DB4436</styleUrl>
				<ExtendedData>
				</ExtendedData>
				<Point>
					<coordinates>-56.202599,-34.907463,0.0</coordinates>
				</Point>
			</Placemark>
			<Placemark>
				<name>Centro Cultural de España</name>
				<description><![CDATA[Rincón 629,<br>11000, Montevideo,<br>Montevideo,<br>Uruguay<br>http://www.cce.org.uy/<br>+598 (2) 9152250]]></description>
				<styleUrl>#icon-503-DB4436</styleUrl>
				<ExtendedData>
				</ExtendedData>
				<Point>
					<coordinates>-56.202728,-34.9058,0.0</coordinates>
				</Point>
			</Placemark>
			<Placemark>
				<name>Hospital Británico</name>
				<description><![CDATA[Avenida Italia 2420,<br>11300, Montevideo,<br>Montevideo,<br>Uruguay<br>http://www.hospitalbritanico.com.uy/<br>+598 (2) 4871020]]></description>
				<styleUrl>#icon-503-DB4436</styleUrl>
				<ExtendedData>
				</ExtendedData>
				<Point>
					<coordinates>-56.16272,-34.894379,0.0</coordinates>
				</Point>
			</Placemark>
			<Placemark>
				<name>El Pony Pisador</name>
				<description><![CDATA[Bartolomé Mitre 1324,<br>11000, Montevideo,<br>Montevideo,<br>Uruguay<br>http://www.elponypisador.com.uy/<br>+598 (2) 9162982]]></description>
				<styleUrl>#icon-503-DB4436</styleUrl>
				<ExtendedData>
				</ExtendedData>
				<Point>
					<coordinates>-56.201698,-34.907066,0.0</coordinates>
				</Point>
			</Placemark>
			<Placemark>
				<name>El Palenque</name>
				<description><![CDATA[Rambla 25 de Agosto s/n,<br>11000, Montevideo,<br>Montevideo,<br>Uruguay<br>http://www.elpalenque.com.uy/<br>+598 (2) 9170190]]></description>
				<styleUrl>#icon-503-DB4436</styleUrl>
				<ExtendedData>
				</ExtendedData>
				<Point>
					<coordinates>-56.211525,-34.905495,0.0</coordinates>
				</Point>
			</Placemark>
			<Placemark>
				<name>SOA Bar</name>
				<description><![CDATA[Obligado 1174,<br>11300, Montevideo,<br>Montevideo,<br>Uruguay<br>+598 (2) 7082319]]></description>
				<styleUrl>#icon-503-DB4436</styleUrl>
				<ExtendedData>
				</ExtendedData>
				<Point>
					<coordinates>-56.161064,-34.907612,0.0</coordinates>
				</Point>
			</Placemark>
			<Placemark>
				<name>La Otra</name>
				<description><![CDATA[Tomás Diago 758,<br>11300, Montevideo,<br>Montevideo,<br>Uruguay<br>+598 (2) 7113006]]></description>
				<styleUrl>#icon-503-DB4436</styleUrl>
				<ExtendedData>
				</ExtendedData>
				<Point>
					<coordinates>-56.152283,-34.917465,0.0</coordinates>
				</Point>
			</Placemark>
			<Placemark>
				<name>Che Montevideo</name>
				<description><![CDATA[Rambla Ghandi s/n,<br>11300, Montevideo,<br>Montevideo,<br>Uruguay<br>598 (2) 7106941]]></description>
				<styleUrl>#icon-503-DB4436</styleUrl>
				<ExtendedData>
				</ExtendedData>
				<Point>
					<coordinates>-56.149551,-34.921417,0.0</coordinates>
				</Point>
			</Placemark>
			<Placemark>
				<name>Plaza de los Treinta y Tres Orientales</name>
				<description><![CDATA[18 de Julio, 25 de Mayo, Asamblea y General Artigas,<br>80000, San José de Mayo,<br>San José,<br>Uruguay]]></description>
				<styleUrl>#icon-503-DB4436</styleUrl>
				<ExtendedData>
				</ExtendedData>
				<Point>
					<coordinates>-56.713772,-34.339535,0.0</coordinates>
				</Point>
			</Placemark>
			<Placemark>
				<name>Plaza Constitución</name>
				<description><![CDATA[Santísima Trinidad, Luis Alberto de Herrera, Fray Manuel y Francisco Fondar,<br>85000, Trinidad,<br>Flores,<br>Uruguay]]></description>
				<styleUrl>#icon-503-DB4436</styleUrl>
				<ExtendedData>
				</ExtendedData>
				<Point>
					<coordinates>-56.898098,-33.517376,0.0</coordinates>
				</Point>
			</Placemark>
			<Placemark>
				<name>Mac Center Shopping</name>
				<description><![CDATA[Doctor Luis Alberto de Herrera 925,<br>60000, Paysandú,<br>Paysandú,<br>Uruguay<br>http://www.maccentershopping.com.uy/]]></description>
				<styleUrl>#icon-503-DB4436</styleUrl>
				<ExtendedData>
				</ExtendedData>
				<Point>
					<coordinates>-58.083195,-32.317486,0.0</coordinates>
				</Point>
			</Placemark>
			<Placemark>
				<name>Caldas del Dayman</name>
				<description><![CDATA[Avenida de Acceso a Termas del Daymán,<br>50000, Termas del Daymán,<br>Salto,<br>Uruguay<br>http://www.caldasdeldayman.com/<br>+598 (73) 69056]]></description>
				<styleUrl>#icon-503-DB4436</styleUrl>
				<ExtendedData>
				</ExtendedData>
				<Point>
					<coordinates>-57.90812699999999,-31.457176,0.0</coordinates>
				</Point>
			</Placemark>
			<Placemark>
				<name>Facultad de Derecho</name>
				<description><![CDATA[18 de julio 1824,<br>11100, Montevideo,<br>Montevideo,<br>Uruguay<br>http://www.fder.edu.uy/<br>+598 (2) 4083311]]></description>
				<styleUrl>#icon-503-DB4436</styleUrl>
				<ExtendedData>
				</ExtendedData>
				<Point>
					<coordinates>-56.176559,-34.902534,0.0</coordinates>
				</Point>
			</Placemark>
			<Placemark>
				<name>D&amp;E Consulting</name>
				<description><![CDATA[Luis B. Berres , casi Camino al Paso de la Arena.<br>12600, Montevideo,<br>Montevideo,<br>Uruguay<br>http://www.AmericanManager.biz<br><br>No se encuentra habilitado todos los días.]]></description>
				<styleUrl>#icon-503-DB4436</styleUrl>
				<ExtendedData>
				</ExtendedData>
				<Point>
					<coordinates>-56.156616,-34.379711,0.0</coordinates>
				</Point>
			</Placemark>
			<Placemark>
				<name>Plaza Independencia</name>
				<description><![CDATA[General Artigas, 25 de Mayo, José Pedro Ramírez y 25 de Agosto,<br>27000, Rocha,<br>Rocha,<br>Uruguay]]></description>
				<styleUrl>#icon-503-DB4436</styleUrl>
				<ExtendedData>
				</ExtendedData>
				<Point>
					<coordinates>-54.336567,-34.481018,0.0</coordinates>
				</Point>
			</Placemark>
			<Placemark>
				<name>Plaza Libertad</name>
				<description><![CDATA[18 de Julio y Héctor Gutiérrez Ruiz,<br>11100, Montevideo,<br>Montevideo,<br>Uruguay<br><br>Red: wiif-antel<br>Usuario: wifi<br>Contraseña: antel]]></description>
				<styleUrl>#icon-503-DB4436</styleUrl>
				<ExtendedData>
				</ExtendedData>
				<Point>
					<coordinates>-56.191383,-34.905907,0.0</coordinates>
				</Point>
			</Placemark>
			<Placemark>
				<name>Plaza San Fernando</name>
				<description><![CDATA[Sarandí, Florida, 25 de Mayo y 18 de Julio,<br>20000, Maldonado,<br>Maldonado,<br>Uruguay]]></description>
				<styleUrl>#icon-503-DB4436</styleUrl>
				<ExtendedData>
				</ExtendedData>
				<Point>
					<coordinates>-54.958153,-34.908756,0.0</coordinates>
				</Point>
			</Placemark>
			<Placemark>
				<name>Mauricio</name>
				<description><![CDATA[Ciudadela 1250, <br>11000, Montevideo,<br>Montevideo,<br>Uruguay<br>+598 (2) 9032090]]></description>
				<styleUrl>#icon-503-DB4436</styleUrl>
				<ExtendedData>
				</ExtendedData>
				<Point>
					<coordinates>-56.199795,-34.908543,0.0</coordinates>
				</Point>
			</Placemark>
			<Placemark>
				<name>Living</name>
				<description><![CDATA[Juan Paullier 1050,<br>11200, Montevideo,<br>Montevideo,<br>Uruguay<br>+598 (2) 4023795]]></description>
				<styleUrl>#icon-503-DB4436</styleUrl>
				<ExtendedData>
				</ExtendedData>
				<Point>
					<coordinates>-56.16711,-34.909275,0.0</coordinates>
				</Point>
			</Placemark>
			<Placemark>
				<name>El Copacabana</name>
				<description><![CDATA[Sarandí 454,<br>11000, Montevideo,<br>Montevideo,<br>Uruguay<br>+598 (2) 9153205]]></description>
				<styleUrl>#icon-503-DB4436</styleUrl>
				<ExtendedData>
				</ExtendedData>
				<Point>
					<coordinates>-56.2057,-34.907887,0.0</coordinates>
				</Point>
			</Placemark>
			<Placemark>
				<name>Plaza 25 de Agosto</name>
				<description><![CDATA[General Flores, Lavalleja, Rivadavia e Intendente Flores,<br>70000, Colonia del Sacramento,<br>Colonia,<br>Uruguay]]></description>
				<styleUrl>#icon-503-DB4436</styleUrl>
				<ExtendedData>
				</ExtendedData>
				<Point>
					<coordinates>-57.846882,-34.469997,0.0</coordinates>
				</Point>
			</Placemark>
			<Placemark>
				<name>Carrasco Lawn Tennis</name>
				<description><![CDATA[Eduardo J. Couture 6401,<br>11500, Montevideo,<br>Montevideo,<br>Uruguay<br>http://www.clt.com.uy/<br>+598 (2) 6004312]]></description>
				<styleUrl>#icon-503-DB4436</styleUrl>
				<ExtendedData>
				</ExtendedData>
				<Point>
					<coordinates>-56.059841,-34.884434,0.0</coordinates>
				</Point>
			</Placemark>
			<Placemark>
				<name>Plaza Constitución</name>
				<description><![CDATA[Remigio Castellamos, 18 de Julio, Del Pilar y Aparicio Saravia,<br>37000, Melo,<br>Cerro Largo,<br>Uruguay]]></description>
				<styleUrl>#icon-503-DB4436</styleUrl>
				<ExtendedData>
				</ExtendedData>
				<Point>
					<coordinates>-54.168694,-32.373871,0.0</coordinates>
				</Point>
			</Placemark>
			<Placemark>
				<name>Plaza Independencia</name>
				<description><![CDATA[Geral Fructuoso Rivera, Eusebio Píriz, Batlle y Ordóñez y Brigadier General Manuel Oribe,<br>97000, Durazno,<br>Durazno,<br>Uruguay]]></description>
				<styleUrl>#icon-503-DB4436</styleUrl>
				<ExtendedData>
				</ExtendedData>
				<Point>
					<coordinates>-56.522404,-33.380424,0.0</coordinates>
				</Point>
			</Placemark>
			<Placemark>
				<name>Plaza Constitución</name>
				<description><![CDATA[18 de Julio, 25 de Mayo, Rincón y Treinta y Tres,<br>65000, Fray Bentos,<br>Río Negro,<br>Uruguay]]></description>
				<styleUrl>#icon-503-DB4436</styleUrl>
				<ExtendedData>
				</ExtendedData>
				<Point>
					<coordinates>-58.31327400000001,-33.116589,0.0</coordinates>
				</Point>
			</Placemark>
			<Placemark>
				<name>Bonafide</name>
				<description><![CDATA[Plaza Independencia 711,<br>1000, Montevideo,<br>Montevideo,<br>Uruguay<br>http://www.bonafide.com.ar/<br>+598 (2) 9089362]]></description>
				<styleUrl>#icon-503-DB4436</styleUrl>
				<ExtendedData>
				</ExtendedData>
				<Point>
					<coordinates>-56.200615,-34.905949,0.0</coordinates>
				</Point>
			</Placemark>
			<Placemark>
				<name>Mantra</name>
				<description><![CDATA[Ruta 10 Parada 48, Av.Jaureguiberry y Ante Millat,<br>20001, La Barra,<br>Maldonado,<br>Uruguay<br>+598 (42) 771 000<br>http://www.mantraresort.com]]></description>
				<styleUrl>#icon-503-DB4436</styleUrl>
				<ExtendedData>
				</ExtendedData>
				<Point>
					<coordinates>-54.85099,-34.916103,0.0</coordinates>
				</Point>
			</Placemark>
			<Placemark>
				<name>Hotel La Capilla</name>
				<description><![CDATA[Viña del Mar y Valparaíso,<br>20100, Punta del Este,<br>Maldonado,<br>Uruguay<br>http://www. lacapilla.com,uy/<br>+598 (42) 484059]]></description>
				<styleUrl>#icon-503-DB4436</styleUrl>
				<ExtendedData>
				</ExtendedData>
				<Point>
					<coordinates>-54.917496,-34.939537,0.0</coordinates>
				</Point>
			</Placemark>
			<Placemark>
				<name>Isidora</name>
				<description><![CDATA[Rambla Artigas y Calle 21,<br>20100, Punta del Este,<br>Maldonado,<br>Uruguay<br>http://www.isidora.com.uy/<br>+598 (42) 449646]]></description>
				<styleUrl>#icon-503-DB4436</styleUrl>
				<ExtendedData>
				</ExtendedData>
				<Point>
					<coordinates>-54.946312,-34.963406,0.0</coordinates>
				</Point>
			</Placemark>
			<Placemark>
				<name>Napoleón</name>
				<description><![CDATA[Rambla General Artigas entre calle 10 y calle 12,<br>20100, Punta del Este,<br>Maldonado,<br>Uruguay<br>http://www.napoleon.com.uy/<br>+598 (2) 42444043]]></description>
				<styleUrl>#icon-503-DB4436</styleUrl>
				<ExtendedData>
				</ExtendedData>
				<Point>
					<coordinates>-54.949795,-34.965366,0.0</coordinates>
				</Point>
			</Placemark>
			<Placemark>
				<name>La Pasiva</name>
				<description><![CDATA[Benito Blanco 920,<br>11300, Montevideo,<br>Montevideo,<br>Uruguay<br>+598 (2) 7071700]]></description>
				<styleUrl>#icon-503-DB4436</styleUrl>
				<ExtendedData>
				</ExtendedData>
				<Point>
					<coordinates>-56.14904,-34.914089,0.0</coordinates>
				</Point>
			</Placemark>
			<Placemark>
				<name>La Pasionaria</name>
				<description><![CDATA[Reconquista 587,<br>11000, Montevideo,<br>Montevideo,<br>Uruguay<br>http://www.lapasionaria.com.uy<br>+598 (2) 9156872]]></description>
				<styleUrl>#icon-503-DB4436</styleUrl>
				<ExtendedData>
				</ExtendedData>
				<Point>
					<coordinates>-56.206203,-34.90984,0.0</coordinates>
				</Point>
			</Placemark>
			<Placemark>
				<name>Plaza Batlle y Ordóñez</name>
				<description><![CDATA[Avenida General Artigas, Rivera, Avenida General Flores y José garibaldi,<br>90200, Las Piedras,<br>Canelones,<br>Uruguay]]></description>
				<styleUrl>#icon-503-DB4436</styleUrl>
				<ExtendedData>
				</ExtendedData>
				<Point>
					<coordinates>-56.285706,-34.366112,0.0</coordinates>
				</Point>
			</Placemark>
			<Placemark>
				<name>Plaza 19 de Abril</name>
				<description><![CDATA[Manuel Lavalleja, Manuel Oribe, Pablo Zeruategui y Juan Antonio Lavalleja,<br>33000, Treinta y Tres,<br>Uruguay]]></description>
				<styleUrl>#icon-503-DB4436</styleUrl>
				<ExtendedData>
				</ExtendedData>
				<Point>
					<coordinates>-54.38633,-33.231613,0.0</coordinates>
				</Point>
			</Placemark>
			<Placemark>
				<name>Plaza Artigas</name>
				<description><![CDATA[Eduardo M. Castro y Lecueder,<br>55000, Artigas,<br>Artigas,<br>Uruguay]]></description>
				<styleUrl>#icon-503-DB4436</styleUrl>
				<ExtendedData>
				</ExtendedData>
				<Point>
					<coordinates>-56.46373,-30.398411,0.0</coordinates>
				</Point>
			</Placemark>
			<Placemark>
				<name>Plaza de Lascano</name>
				<description><![CDATA[UBICACIÓN APROXIMADA POR FALTA DE DEFINICIÓN DE GOOGLE MAPS]]></description>
				<styleUrl>#icon-503-DB4436</styleUrl>
				<ExtendedData>
				</ExtendedData>
				<Point>
					<coordinates>-54.209373,-33.677067,0.0</coordinates>
				</Point>
			</Placemark>
			<Placemark>
				<name>Plaza Artigas</name>
				<description><![CDATA[25 de Agosto, Olivera, Doctor Pedro Ferrer y 18 de Julio,<br>27200, Castillos,<br>Rocha,<br>Uruguay]]></description>
				<styleUrl>#icon-503-DB4436</styleUrl>
				<ExtendedData>
				</ExtendedData>
				<Point>
					<coordinates>-53.860859000000005,-34.200302,0.0</coordinates>
				</Point>
			</Placemark>
			<Placemark>
				<name>Plaza Artigas</name>
				<description><![CDATA[Rio Branco y Avenida Conventos,<br>27100, Chuy,<br>Rocha,<br>Uruguay]]></description>
				<styleUrl>#icon-503-DB4436</styleUrl>
				<ExtendedData>
				</ExtendedData>
				<Point>
					<coordinates>-53.468571,-33.694885,0.0</coordinates>
				</Point>
			</Placemark>
			<Placemark>
				<name>Plaza Colón</name>
				<description><![CDATA[Veinticinco de Mayo, Veinticinco de Agosto, Dieciocho de Julio y Doctor Washington Beltrán,<br>45000, Tacuarembó,<br>Tacuarembó,<br>Uruguay]]></description>
				<styleUrl>#icon-503-DB4436</styleUrl>
				<ExtendedData>
				</ExtendedData>
				<Point>
					<coordinates>-55.98257400000001,-31.714569,0.0</coordinates>
				</Point>
			</Placemark>
			<Placemark>
				<name>Escuela Nº 126</name>
				<description><![CDATA[Avenida Gilomén y Sigrits y Fender,<br>70201, Nueva Helvecia,<br>Colonia,<br>Uruguay]]></description>
				<styleUrl>#icon-503-DB4436</styleUrl>
				<ExtendedData>
				</ExtendedData>
				<Point>
					<coordinates>-57.227112,-34.276329,0.0</coordinates>
				</Point>
			</Placemark>
			<Placemark>
				<name>Bar Salutti</name>
				<description><![CDATA[8 de Octubre y Pan de Azúcar,<br>11600, Montevideo,<br>Montevideo,<br>Uruguay]]></description>
				<styleUrl>#icon-503-DB4436</styleUrl>
				<ExtendedData>
				</ExtendedData>
				<Point>
					<coordinates>-56.469727,-33.376411,0.0</coordinates>
				</Point>
			</Placemark>
			<Placemark>
				<name>Intendencia Municipal de Montevideo</name>
				<description><![CDATA[Avenida 18 de Julio 1360,<br>11200, Montevideo,<br>Montevideo,<br>Uruguay<br><br>Señal en Explanada Municipal, atrio y hall del piso 1 y 1/2.]]></description>
				<styleUrl>#icon-503-DB4436</styleUrl>
				<ExtendedData>
				</ExtendedData>
				<Point>
					<coordinates>-56.185829,-34.906242,0.0</coordinates>
				</Point>
			</Placemark>
			<Placemark>
				<name>Facal</name>
				<description><![CDATA[18 de Julio 1245,<br>11100, Montevideo,<br>Montevideo,<br>Uruguay<br>+598 (2) 9087741]]></description>
				<styleUrl>#icon-503-DB4436</styleUrl>
				<ExtendedData>
				</ExtendedData>
				<Point>
					<coordinates>-56.189285,-34.905659,0.0</coordinates>
				</Point>
			</Placemark>
			<Placemark>
				<name>Cyber TuEspacio</name>
				<description><![CDATA[San Martin 1114,<br>90200, Las Piedras,<br>Canelones,<br>Uruguay<br><br>Contraseña: 12345678]]></description>
				<styleUrl>#icon-503-DB4436</styleUrl>
				<ExtendedData>
				</ExtendedData>
				<Point>
					<coordinates>-56.197708,-34.720417,0.0</coordinates>
				</Point>
			</Placemark>
			<Placemark>
				<name>Bar Santorini</name>
				<description><![CDATA[Avenida 8 de Octubre y Lindoro Forteza,<br>11600, Montevideo,<br>Montevideo,<br>Uruguay]]></description>
				<styleUrl>#icon-503-DB4436</styleUrl>
				<ExtendedData>
				</ExtendedData>
				<Point>
					<coordinates>-56.137825,-34.873543,0.0</coordinates>
				</Point>
			</Placemark>
			<Placemark>
				<name>La Pasiva</name>
				<description><![CDATA[Rivera 2697,<br>11200, Montevideo,<br>Montevideo,<br>Uruguay<br>+598 (2) 7096927]]></description>
				<styleUrl>#icon-503-DB4436</styleUrl>
				<ExtendedData>
				</ExtendedData>
				<Point>
					<coordinates>-56.156338,-34.902836,0.0</coordinates>
				</Point>
			</Placemark>
			<Placemark>
				<name>Plaza  de Libertad, Junta Local</name>
				<description><![CDATA[General José Artigas y Luis Morquio, Libertad,<br>80100, San José,<br>Uruguay]]></description>
				<styleUrl>#icon-503-DB4436</styleUrl>
				<ExtendedData>
				</ExtendedData>
				<Point>
					<coordinates>-56.616516,-34.630981,0.0</coordinates>
				</Point>
			</Placemark>
			<Placemark>
				<name>Centro Cultural de la Coronilla</name>
				<description><![CDATA[Ruta 9,<br>27201, La Coronilla,<br>Rocha,<br>Uruguay]]></description>
				<styleUrl>#icon-503-DB4436</styleUrl>
				<ExtendedData>
				</ExtendedData>
				<Point>
					<coordinates>-53.524029,-33.89584,0.0</coordinates>
				</Point>
			</Placemark>
			<Placemark>
				<name>Club Artigas y Plaza Central</name>
				<description><![CDATA[Calles 3, 4, 5 y 6,<br>27101, 18 de Julio,<br>Rocha,<br>Uruguay]]></description>
				<styleUrl>#icon-503-DB4436</styleUrl>
				<ExtendedData>
				</ExtendedData>
				<Point>
					<coordinates>-53.554573,-33.684212,0.0</coordinates>
				</Point>
			</Placemark>
			<Placemark>
				<name>Junta Local y Plaza de Cebollati</name>
				<description><![CDATA[Lascano, Castillos, Del Chuy y Rocha,<br>27302, Cebollatí,<br>Rocha,<br>Uruguay]]></description>
				<styleUrl>#icon-503-DB4436</styleUrl>
				<ExtendedData>
				</ExtendedData>
				<Point>
					<coordinates>-53.796272,-33.269337,0.0</coordinates>
				</Point>
			</Placemark>
			<Placemark>
				<name>Plaza de Velázquez</name>
				<description><![CDATA[Velázquez, Luis Shaban, Calle 14 y H. Gómez,<br>27303, Velázquez,<br>Rocha,<br>Uruguay]]></description>
				<styleUrl>#icon-503-DB4436</styleUrl>
				<ExtendedData>
				</ExtendedData>
				<Point>
					<coordinates>-54.277954,-34.041283,0.0</coordinates>
				</Point>
			</Placemark>
			<Placemark>
				<name>Plaza Artigas y Biblioteca Municipal de Salto</name>
				<description><![CDATA[Uruguay, 18 de Juilo, General Artigas y Veiticinco de Agosto,<br>50000, Salto,<br>Salto,<br>Uruguay]]></description>
				<styleUrl>#icon-503-DB4436</styleUrl>
				<ExtendedData>
				</ExtendedData>
				<Point>
					<coordinates>-57.960606,-31.388685,0.0</coordinates>
				</Point>
			</Placemark>
			<Placemark>
				<name>Plaza de Nueva Helvecia</name>
				<description><![CDATA[Treinta y Tres, 18 de Julio, 25 de Agosto y Berna,<br>70201, Nueva Helvecia,<br>Colonia,<br>Uruguay]]></description>
				<styleUrl>#icon-503-DB4436</styleUrl>
				<ExtendedData>
				</ExtendedData>
				<Point>
					<coordinates>-57.233448,-34.284912,0.0</coordinates>
				</Point>
			</Placemark>
			<Placemark>
				<name>Plaza de Carmelo</name>
				<description><![CDATA[18 de Julio, 19 de Abril, Roosevelt y Uruguay,<br>70100, Carmelo,<br>Colonia,<br>Uruguay]]></description>
				<styleUrl>#icon-503-DB4436</styleUrl>
				<ExtendedData>
				</ExtendedData>
				<Point>
					<coordinates>-58.2841,-33.997101,0.0</coordinates>
				</Point>
			</Placemark>
			<Placemark>
				<name>La Criolla</name>
				<description><![CDATA[Av. Bolivia 1408,<br>11500, Montevideo,<br>Montevideo,<br>Uruguay<br>http://www.lacriolla.com.uy/<br>+598 (2) 6046997]]></description>
				<styleUrl>#icon-503-DB4436</styleUrl>
				<ExtendedData>
				</ExtendedData>
				<Point>
					<coordinates>-56.065758,-34.893009,0.0</coordinates>
				</Point>
			</Placemark>
			<Placemark>
				<name>La Criolla</name>
				<description><![CDATA[Gregorio Suárez 2746,<br>11300, Montevideo,<br>Montevideo,<br>Uruguay<br>http://www.lacriolla.com.uy/<br>+598 (2) 7103958]]></description>
				<styleUrl>#icon-503-DB4436</styleUrl>
				<ExtendedData>
				</ExtendedData>
				<Point>
					<coordinates>-56.159298,-34.918636,0.0</coordinates>
				</Point>
			</Placemark>
			<Placemark>
				<name>La Pasiva</name>
				<description><![CDATA[Av. Arocena 1644,<br>11500, Montevideo,<br>Montevideo,<br>Uruguay<br>+598 (2) 6008965]]></description>
				<styleUrl>#icon-503-DB4436</styleUrl>
				<ExtendedData>
				</ExtendedData>
				<Point>
					<coordinates>-56.057434,-34.887634,0.0</coordinates>
				</Point>
			</Placemark>
			<Placemark>
				<name>La Pasiva</name>
				<description><![CDATA[Rivera 3499,<br>11300, Montevideo,<br>Montevideo,<br>Uruguay<br>+598 (2) 6287262]]></description>
				<styleUrl>#icon-503-DB4436</styleUrl>
				<ExtendedData>
				</ExtendedData>
				<Point>
					<coordinates>-56.13879,-34.901093,0.0</coordinates>
				</Point>
			</Placemark>
			<Placemark>
				<name>Centro Municipal de Exposiciones Subte</name>
				<description><![CDATA[Plaza Fabini, 18 de Julio y Julio Herrera y Obes,<br>11100, Montevideo,<br>Montevideo,<br>Uruguay<br>http://subtemvd.blogspot.com/<br>+598 (2) 9087643]]></description>
				<styleUrl>#icon-503-DB4436</styleUrl>
				<ExtendedData>
				</ExtendedData>
				<Point>
					<coordinates>-56.19421,-34.905903,0.0</coordinates>
				</Point>
			</Placemark>
			<Placemark>
				<name>Parador El Rancho</name>
				<description><![CDATA[Pancho López y Saravia,<br>85000, Trinidad,<br>Flores,<br>Uruguay<br>+598 (0364) 3940]]></description>
				<styleUrl>#icon-503-DB4436</styleUrl>
				<ExtendedData>
				</ExtendedData>
				<Point>
					<coordinates>-56.898109,-33.527515,0.0</coordinates>
				</Point>
			</Placemark>
			<Placemark>
				<name>Rambla de Mercedes</name>
				<description><![CDATA[Rambla de Mercedes,<br>75000, Mercedes,<br>Soriano,<br>Uruguay]]></description>
				<styleUrl>#icon-503-DB4436</styleUrl>
				<ExtendedData>
				</ExtendedData>
				<Point>
					<coordinates>-58.030987,-33.244591,0.0</coordinates>
				</Point>
			</Placemark>
			<Placemark>
				<name>Tienda Inglesa Atlántida (Barny's)</name>
				<description><![CDATA[Ruta Interbalnearia Km. 45,<br>16000, Atlántida,<br>Canelones,<br>Uruguay<br>http://www.tinglesa.com.uy/<br>+598 (037) 22222]]></description>
				<styleUrl>#icon-503-DB4436</styleUrl>
				<ExtendedData>
				</ExtendedData>
				<Point>
					<coordinates>-55.76791,-34.767899,0.0</coordinates>
				</Point>
			</Placemark>
			<Placemark>
				<name>Museo Nacional de Artes Visuales</name>
				<description><![CDATA[Julio Herrera y Reissig esq. Tomás Giribaldi s/n,<br>11300, Montevideo<br>Montevideo,<br>Uruguay<br>Telefax: +598(2) 7116054, 7116124, 7116127<br>http://www.mnav.gub.uy/<br>SSID: MNAV]]></description>
				<styleUrl>#icon-503-DB4436</styleUrl>
				<ExtendedData>
				</ExtendedData>
				<Point>
					<coordinates>-56.164879,-34.913975,0.0</coordinates>
				</Point>
			</Placemark>
			<Placemark>
				<name>Puro Verso</name>
				<description><![CDATA[Primer Piso]]></description>
				<styleUrl>#icon-503-DB4436</styleUrl>
				<ExtendedData>
				</ExtendedData>
				<Point>
					<coordinates>-56.201458,-34.906483,0.0</coordinates>
				</Point>
			</Placemark>
			<Placemark>
				<name>Pizzeria Trouville</name>
				<styleUrl>#icon-503-DB4436-nodesc</styleUrl>
				<ExtendedData>
				</ExtendedData>
				<Point>
					<coordinates>-57.966637000000006,-31.387436,0.0</coordinates>
				</Point>
			</Placemark>
			<Placemark>
				<name>Hotel Radisson</name>
				<description><![CDATA[WiFi de acceso gratis (sin pass) en el lobby del hotel Radisson<br>Plaza Independencia 759 - CP 11.100 - Montevideo - Uruguay - (0598 2) 9020111 - radisson@radisson.com.uy<br>http://www.radisson.com.uy/]]></description>
				<styleUrl>#icon-503-DB4436</styleUrl>
				<ExtendedData>
				</ExtendedData>
				<Point>
					<coordinates>-56.199253,-34.905941,0.0</coordinates>
				</Point>
			</Placemark>
			<Placemark>
				<name>Proyecto Aurora</name>
				<description><![CDATA[Proyecto Aurora<br>Ruta 7, Km 79.500,<br>91.400, Tala,<br>Canelones<br>+598 (315) 3660<br>http://proyecto-aurora.blogspot.com/]]></description>
				<styleUrl>#icon-503-DB4436</styleUrl>
				<ExtendedData>
				</ExtendedData>
				<Point>
					<coordinates>-55.76437,-34.344002,0.0</coordinates>
				</Point>
			</Placemark>
			<Placemark>
				<name>CALPICA</name>
				<description><![CDATA[55.100, Mones Quintela,<br>Artigas<br>http://www.rapceibal-bellaunion.blogspot.com/]]></description>
				<styleUrl>#icon-503-DB4436</styleUrl>
				<ExtendedData>
				</ExtendedData>
				<Point>
					<coordinates>-57.66466100000001,-30.373171,0.0</coordinates>
				</Point>
			</Placemark>
			<Placemark>
				<name>Facultad de Ciencias Económicas y de Administración, Universidad de la República</name>
				<description><![CDATA[Gonzalo Ramirez 1926<br>11200, Montevideo,<br>Montevideo,<br>Uruguay<br>http://www.ccee.edu.uy<br>+598 (02) 4118839<br><br>Usuario: antel<br>Contraseña: wifi]]></description>
				<styleUrl>#icon-503-DB4436</styleUrl>
				<ExtendedData>
				</ExtendedData>
				<Point>
					<coordinates>-56.17320300000001,-34.912163,0.0</coordinates>
				</Point>
			</Placemark>
			<Placemark>
				<name>Wifi residencial</name>
				<description><![CDATA[Nombre de la red: LINUX<br>Abierto]]></description>
				<styleUrl>#icon-503-DB4436</styleUrl>
				<ExtendedData>
				</ExtendedData>
				<Point>
					<coordinates>-56.180069,-34.864483,0.0</coordinates>
				</Point>
			</Placemark>
			<Placemark>
				<name>WLAN-CX6DAK</name>
				<description><![CDATA[WLAN-CX6DAK<br>Hotspot libre<br>sin contrasena<br>Torres Garcia 617]]></description>
				<styleUrl>#icon-503-DB4436</styleUrl>
				<ExtendedData>
				</ExtendedData>
				<Point>
					<coordinates>-56.213657,-34.727463,0.0</coordinates>
				</Point>
			</Placemark>
			<Placemark>
				<name>Inet_libre_av_italia</name>
				<description><![CDATA[red]]></description>
				<styleUrl>#icon-503-DB4436</styleUrl>
				<ExtendedData>
				</ExtendedData>
				<Point>
					<coordinates>-56.147652,-34.88913,0.0</coordinates>
				</Point>
			</Placemark>
			<Placemark>
				<name>Dr. Alejandro Gallinal</name>
				<description><![CDATA[Ituzaingó, Uruguay]]></description>
				<styleUrl>#icon-503-DB4436</styleUrl>
				<ExtendedData>
				</ExtendedData>
				<Point>
					<coordinates>-56.100151,-34.88361,0.0</coordinates>
				</Point>
			</Placemark>
			<Placemark>
				<name>WiFi Proyecto Aurora</name>
				<description><![CDATA[Club Mangangá]]></description>
				<styleUrl>#icon-503-DB4436</styleUrl>
				<ExtendedData>
				</ExtendedData>
				<Point>
					<coordinates>-55.655365,-34.352791,0.0</coordinates>
				</Point>
			</Placemark>
			<Placemark>
				<name>Parque Liber Seregni</name>
				<styleUrl>#icon-503-DB4436-nodesc</styleUrl>
				<ExtendedData>
				</ExtendedData>
				<Point>
					<coordinates>-56.171906,-34.897053,0.0</coordinates>
				</Point>
			</Placemark>
			<Placemark>
				<name>Liceo 20</name>
				<description><![CDATA[Ester de Cáceres 5602 entre Hernani y Emilio Oribe.<br>Montevideo,<br>Uruguay]]></description>
				<styleUrl>#icon-503-DB4436</styleUrl>
				<ExtendedData>
				</ExtendedData>
				<Point>
					<coordinates>-56.085564,-34.887043,0.0</coordinates>
				</Point>
			</Placemark>
			<Placemark>
				<name>Biblioteca "Delmira Agustini"</name>
				<description><![CDATA[Samuel Blixen 4151 entre Alto Peru  y Carlos Lallemand.<br>Montevideo.<br>Uruguay.]]></description>
				<styleUrl>#icon-503-DB4436</styleUrl>
				<ExtendedData>
				</ExtendedData>
				<Point>
					<coordinates>-56.124237,-34.888706,0.0</coordinates>
				</Point>
			</Placemark>
			<Placemark>
				<name>Pizzería Rodelú</name>
				<styleUrl>#icon-503-DB4436-nodesc</styleUrl>
				<ExtendedData>
				</ExtendedData>
				<Point>
					<coordinates>-56.168335,-34.916573,0.0</coordinates>
				</Point>
			</Placemark>
			<Placemark>
				<name>Pizzería Trouville</name>
				<styleUrl>#icon-503-DB4436-nodesc</styleUrl>
				<ExtendedData>
				</ExtendedData>
				<Point>
					<coordinates>-56.150242000000006,-34.920391,0.0</coordinates>
				</Point>
			</Placemark>
		</Folder>
		<Style id='icon-181-normal'>
			<IconStyle>
				<scale>1.1</scale>
				<Icon>
					<href>http://www.gstatic.com/mapspro/images/stock/181-info_circle.png</href>
				</Icon>
			</IconStyle>
			<LabelStyle>
				<scale>0.0</scale>
			</LabelStyle>
		</Style>
		<Style id='icon-181-highlight'>
			<IconStyle>
				<scale>1.1</scale>
				<Icon>
					<href>http://www.gstatic.com/mapspro/images/stock/181-info_circle.png</href>
				</Icon>
			</IconStyle>
			<LabelStyle>
				<scale>1.1</scale>
			</LabelStyle>
		</Style>
		<StyleMap id='icon-181'>
			<Pair>
				<key>normal</key>
				<styleUrl>#icon-181-normal</styleUrl>
			</Pair>
			<Pair>
				<key>highlight</key>
				<styleUrl>#icon-181-highlight</styleUrl>
			</Pair>
		</StyleMap>
		<Style id='icon-25-normal'>
			<IconStyle>
				<scale>1.1</scale>
				<Icon>
					<href>http://www.gstatic.com/mapspro/images/stock/25-bus.png</href>
				</Icon>
			</IconStyle>
			<LabelStyle>
				<scale>0.0</scale>
			</LabelStyle>
		</Style>
		<Style id='icon-25-highlight'>
			<IconStyle>
				<scale>1.1</scale>
				<Icon>
					<href>http://www.gstatic.com/mapspro/images/stock/25-bus.png</href>
				</Icon>
			</IconStyle>
			<LabelStyle>
				<scale>1.1</scale>
			</LabelStyle>
		</Style>
		<StyleMap id='icon-25'>
			<Pair>
				<key>normal</key>
				<styleUrl>#icon-25-normal</styleUrl>
			</Pair>
			<Pair>
				<key>highlight</key>
				<styleUrl>#icon-25-highlight</styleUrl>
			</Pair>
		</StyleMap>
		<Style id='icon-503-DB4436-normal'>
			<IconStyle>
				<color>ff3644DB</color>
				<scale>1.1</scale>
				<Icon>
					<href>http://www.gstatic.com/mapspro/images/stock/503-wht-blank_maps.png</href>
				</Icon>
				<hotSpot x='16' y='31' xunits='pixels' yunits='insetPixels'>
				</hotSpot>
			</IconStyle>
			<LabelStyle>
				<scale>0.0</scale>
			</LabelStyle>
		</Style>
		<Style id='icon-503-DB4436-highlight'>
			<IconStyle>
				<color>ff3644DB</color>
				<scale>1.1</scale>
				<Icon>
					<href>http://www.gstatic.com/mapspro/images/stock/503-wht-blank_maps.png</href>
				</Icon>
				<hotSpot x='16' y='31' xunits='pixels' yunits='insetPixels'>
				</hotSpot>
			</IconStyle>
			<LabelStyle>
				<scale>1.1</scale>
			</LabelStyle>
		</Style>
		<StyleMap id='icon-503-DB4436'>
			<Pair>
				<key>normal</key>
				<styleUrl>#icon-503-DB4436-normal</styleUrl>
			</Pair>
			<Pair>
				<key>highlight</key>
				<styleUrl>#icon-503-DB4436-highlight</styleUrl>
			</Pair>
		</StyleMap>
		<Style id='icon-503-DB4436-nodesc-normal'>
			<IconStyle>
				<color>ff3644DB</color>
				<scale>1.1</scale>
				<Icon>
					<href>http://www.gstatic.com/mapspro/images/stock/503-wht-blank_maps.png</href>
				</Icon>
				<hotSpot x='16' y='31' xunits='pixels' yunits='insetPixels'>
				</hotSpot>
			</IconStyle>
			<LabelStyle>
				<scale>0.0</scale>
			</LabelStyle>
			<BalloonStyle>
				<text><![CDATA[<h3>$[name]</h3>]]></text>
			</BalloonStyle>
		</Style>
		<Style id='icon-503-DB4436-nodesc-highlight'>
			<IconStyle>
				<color>ff3644DB</color>
				<scale>1.1</scale>
				<Icon>
					<href>http://www.gstatic.com/mapspro/images/stock/503-wht-blank_maps.png</href>
				</Icon>
				<hotSpot x='16' y='31' xunits='pixels' yunits='insetPixels'>
				</hotSpot>
			</IconStyle>
			<LabelStyle>
				<scale>1.1</scale>
			</LabelStyle>
			<BalloonStyle>
				<text><![CDATA[<h3>$[name]</h3>]]></text>
			</BalloonStyle>
		</Style>
		<StyleMap id='icon-503-DB4436-nodesc'>
			<Pair>
				<key>normal</key>
				<styleUrl>#icon-503-DB4436-nodesc-normal</styleUrl>
			</Pair>
			<Pair>
				<key>highlight</key>
				<styleUrl>#icon-503-DB4436-nodesc-highlight</styleUrl>
			</Pair>
		</StyleMap>
	</Document>
</kml>